{"type":"FeatureCollection","features":[{"type":"Feature","properties":{"site":"02085000","name":"ENO RIVER AT HILLSBOROUGH, NC","huc8":"03020201","startYr":1927,"endYr":2021,"nYears":94,"STREAM_NAM":null,"status":"Moderately Dry","flow":22.3,"julian":138,"date":"May-18","flow50":25.07},"geometry":{"type":"Point","coordinates":[-79.0955556,36.0711111]}},{"type":"Feature","properties":{"site":"02085070","name":"ENO RIVER NEAR DURHAM, NC","huc8":"03020201","startYr":1963,"endYr":2021,"nYears":58,"STREAM_NAM":"Eno River (Lower)","status":"Moderately Dry","flow":56.6,"julian":138,"date":"May-18","flow50":57.01},"geometry":{"type":"Point","coordinates":[-78.9077778,36.0722222]}},{"type":"Feature","properties":{"site":"0208521324","name":"LITTLE RIVER AT SR1461 NEAR ORANGE FACTORY, NC","huc8":"03020201","startYr":1987,"endYr":2021,"nYears":34,"STREAM_NAM":"Little River (Little River Reservoir)","status":"Moderately Dry","flow":21.1,"julian":138,"date":"May-18","flow50":27.85},"geometry":{"type":"Point","coordinates":[-78.9191667,36.1416667]}},{"type":"Feature","properties":{"site":"0208524090","name":"MOUNTAIN CREEK AT SR1617 NR BAHAMA, NC","huc8":"03020201","startYr":1994,"endYr":2021,"nYears":27,"STREAM_NAM":"Little River (Little River Reservoir)","status":"Moderately Wet","flow":3.62,"julian":138,"date":"May-18","flow50":2.2},"geometry":{"type":"Point","coordinates":[-78.8966667,36.1497222]}},{"type":"Feature","properties":{"site":"0208524975","name":"LITTLE R BL LITTLE R TRIB AT FAIRNTOSH, NC","huc8":"03020201","startYr":1995,"endYr":2021,"nYears":26,"STREAM_NAM":"Falls Lake","status":"Moderately Wet","flow":12.77,"julian":138,"date":"May-18","flow50":12.04},"geometry":{"type":"Point","coordinates":[-78.8597222,36.1133333]}},{"type":"Feature","properties":{"site":"02085500","name":"FLAT RIVER AT BAHAMA, NC","huc8":"03020201","startYr":1925,"endYr":2021,"nYears":96,"STREAM_NAM":"Flat River (Lake Michie)","status":"Moderately Dry","flow":43.66,"julian":138,"date":"May-18","flow50":51.86},"geometry":{"type":"Point","coordinates":[-78.8788889,36.1827778]}},{"type":"Feature","properties":{"site":"02086500","name":"FLAT RIVER AT DAM NEAR BAHAMA, NC","huc8":"03020201","startYr":1927,"endYr":2021,"nYears":94,"STREAM_NAM":"Falls Lake","status":"Very Dry","flow":15.55,"julian":138,"date":"May-18","flow50":54.43},"geometry":{"type":"Point","coordinates":[-78.8288889,36.1486111]}},{"type":"Feature","properties":{"site":"02086624","name":"KNAP OF REEDS CREEK NEAR BUTNER, NC","huc8":"03020201","startYr":1982,"endYr":2021,"nYears":39,"STREAM_NAM":"Falls Lake","status":"Extremely Dry","flow":4,"julian":138,"date":"May-18","flow50":12.17},"geometry":{"type":"Point","coordinates":[-78.7983389,36.1279222]}},{"type":"Feature","properties":{"site":"0208675010","name":"ELLERBE CREEK AT CLUB BOULEVARD AT DURHAM, NC","huc8":"03020201","startYr":2008,"endYr":2021,"nYears":13,"STREAM_NAM":"Falls Lake","status":"Very Dry","flow":0.87,"julian":138,"date":"May-18","flow50":3.28},"geometry":{"type":"Point","coordinates":[-78.8947778,36.0193889]}},{"type":"Feature","properties":{"site":"02086849","name":"ELLERBE CREEK NEAR GORMAN, NC","huc8":"03020201","startYr":1982,"endYr":2021,"nYears":39,"STREAM_NAM":"Falls Lake","status":"Moderately Dry","flow":19.64,"julian":138,"date":"May-18","flow50":26.74},"geometry":{"type":"Point","coordinates":[-78.8325065,36.0593111]}},{"type":"Feature","properties":{"site":"02087183","name":"NEUSE RIVER NEAR FALLS, NC","huc8":"03020201","startYr":1970,"endYr":2021,"nYears":51,"STREAM_NAM":"Neuse River (Wake Forest)","status":"Moderately Dry","flow":143.57,"julian":138,"date":"May-18","flow50":182.21},"geometry":{"type":"Point","coordinates":[-78.5808333,35.94]}},{"type":"Feature","properties":{"site":"0208726005","name":"CRABTREE CR AT EBENEZER CHURCH RD NR RALEIGH, NC","huc8":"03020201","startYr":1987,"endYr":2021,"nYears":34,"STREAM_NAM":null,"status":"Moderately Dry","flow":25.73,"julian":138,"date":"May-18","flow50":44.6},"geometry":{"type":"Point","coordinates":[-78.7244444,35.8452778]}},{"type":"Feature","properties":{"site":"02087275","name":"CRABTREE CREEK AT HWY 70 AT RALEIGH, NC","huc8":"03020201","startYr":1997,"endYr":2021,"nYears":24,"STREAM_NAM":null,"status":"Moderately Dry","flow":35.3,"julian":138,"date":"May-18","flow50":56.32},"geometry":{"type":"Point","coordinates":[-78.6741667,35.8380556]}},{"type":"Feature","properties":{"site":"02087324","name":"CRABTREE CREEK AT US 1 AT RALEIGH, NC","huc8":"03020201","startYr":1990,"endYr":2021,"nYears":31,"STREAM_NAM":null,"status":"Very Dry","flow":38.34,"julian":138,"date":"May-18","flow50":75.07},"geometry":{"type":"Point","coordinates":[-78.6108333,35.8111111]}},{"type":"Feature","properties":{"site":"0208732534","name":"PIGEON HOUSE CR AT CAMERON VILLAGE AT RALEIGH, NC","huc8":"03020201","startYr":1987,"endYr":2021,"nYears":34,"STREAM_NAM":null,"status":"Moderately Dry","flow":0.13,"julian":138,"date":"May-18","flow50":0.24},"geometry":{"type":"Point","coordinates":[-78.6547222,35.7875]}},{"type":"Feature","properties":{"site":"0208732885","name":"MARSH CREEK NEAR NEW HOPE, NC","huc8":"03020201","startYr":1984,"endYr":2021,"nYears":37,"STREAM_NAM":null,"status":"Moderately Dry","flow":3.57,"julian":138,"date":"May-18","flow50":4.71},"geometry":{"type":"Point","coordinates":[-78.5930556,35.8169444]}},{"type":"Feature","properties":{"site":"0208735012","name":"ROCKY BRANCH BELOW PULLEN ROAD AT RALEIGH, NC","huc8":"03020201","startYr":1992,"endYr":2021,"nYears":29,"STREAM_NAM":null,"status":"Extremely Dry","flow":0.37,"julian":138,"date":"May-18","flow50":1.04},"geometry":{"type":"Point","coordinates":[-78.6663889,35.78]}},{"type":"Feature","properties":{"site":"02087359","name":"WALNUT CREEK AT SUNNYBROOK DRIVE NR RALEIGH, NC","huc8":"03020201","startYr":1996,"endYr":2021,"nYears":25,"STREAM_NAM":null,"status":"Very Dry","flow":11.16,"julian":138,"date":"May-18","flow50":21.34},"geometry":{"type":"Point","coordinates":[-78.5830556,35.7583333]}},{"type":"Feature","properties":{"site":"02087500","name":"NEUSE RIVER NEAR CLAYTON, NC","huc8":"03020201","startYr":1927,"endYr":2021,"nYears":94,"STREAM_NAM":"Neuse River (Johnston County)","status":"Moderately Dry","flow":443.86,"julian":138,"date":"May-18","flow50":617.36},"geometry":{"type":"Point","coordinates":[-78.4052778,35.6472222]}},{"type":"Feature","properties":{"site":"02087580","name":"SWIFT CREEK NEAR APEX, NC","huc8":"03020201","startYr":2002,"endYr":2021,"nYears":19,"STREAM_NAM":"Swift Creek (Lake Benson)","status":"Very Dry","flow":3.5,"julian":138,"date":"May-18","flow50":14.25},"geometry":{"type":"Point","coordinates":[-78.7522222,35.7188889]}},{"type":"Feature","properties":{"site":"0208758850","name":"SWIFT CREEK NEAR MCCULLARS CROSSROADS, NC","huc8":"03020201","startYr":1987,"endYr":2021,"nYears":34,"STREAM_NAM":"Swift Creek (Lake Benson)","status":"Moderately Dry","flow":9.59,"julian":138,"date":"May-18","flow50":10.89},"geometry":{"type":"Point","coordinates":[-78.6922222,35.6936111]}},{"type":"Feature","properties":{"site":"0208773375","name":"SWIFT CREEK AT SR1555 NEAR CLAYTON, NC","huc8":"03020201","startYr":2008,"endYr":2021,"nYears":13,"STREAM_NAM":null,"status":"Very Dry","flow":32.99,"julian":138,"date":"May-18","flow50":42.4},"geometry":{"type":"Point","coordinates":[-78.4986111,35.575]}},{"type":"Feature","properties":{"site":"02088000","name":"MIDDLE CREEK NEAR CLAYTON, NC","huc8":"03020201","startYr":1939,"endYr":2021,"nYears":82,"STREAM_NAM":null,"status":"Moderately Dry","flow":38.03,"julian":138,"date":"May-18","flow50":44.05},"geometry":{"type":"Point","coordinates":[-78.5905556,35.5708333]}},{"type":"Feature","properties":{"site":"02088383","name":"LITTLE RIVER NEAR ZEBULON, NC","huc8":"03020201","startYr":2008,"endYr":2021,"nYears":13,"STREAM_NAM":null,"status":"Moderately Dry","flow":18.81,"julian":138,"date":"May-18","flow50":24.27},"geometry":{"type":"Point","coordinates":[-78.3522222,35.8219444]}},{"type":"Feature","properties":{"site":"02088500","name":"LITTLE RIVER NEAR PRINCETON, NC","huc8":"03020201","startYr":1930,"endYr":2021,"nYears":91,"STREAM_NAM":null,"status":"Very Dry","flow":39.03,"julian":138,"date":"May-18","flow50":85.35},"geometry":{"type":"Point","coordinates":[-78.1602778,35.5113889]}},{"type":"Feature","properties":{"site":"02089000","name":"NEUSE RIVER NEAR GOLDSBORO, NC","huc8":"03020202","startYr":1930,"endYr":2021,"nYears":91,"STREAM_NAM":null,"status":"Very Dry","flow":724,"julian":138,"date":"May-18","flow50":1152.07},"geometry":{"type":"Point","coordinates":[-77.9975,35.3375]}},{"type":"Feature","properties":{"site":"02089500","name":"NEUSE RIVER AT KINSTON, NC","huc8":"03020202","startYr":1930,"endYr":2021,"nYears":91,"STREAM_NAM":null,"status":"Very Dry","flow":1016.14,"julian":138,"date":"May-18","flow50":1500.71},"geometry":{"type":"Point","coordinates":[-77.5855556,35.2577778]}},{"type":"Feature","properties":{"site":"02090380","name":"CONTENTNEA CREEK NEAR LUCAMA, NC","huc8":"03020203","startYr":1964,"endYr":2021,"nYears":57,"STREAM_NAM":null,"status":"Very Dry","flow":26.01,"julian":138,"date":"May-18","flow50":54.49},"geometry":{"type":"Point","coordinates":[-78.1097222,35.6911111]}},{"type":"Feature","properties":{"site":"02091000","name":"NAHUNTA SWAMP NEAR SHINE, NC","huc8":"03020203","startYr":1954,"endYr":2021,"nYears":67,"STREAM_NAM":null,"status":"Very Dry","flow":19.77,"julian":138,"date":"May-18","flow50":33.96},"geometry":{"type":"Point","coordinates":[-77.8061111,35.4888889]}},{"type":"Feature","properties":{"site":"02091500","name":"CONTENTNEA CREEK AT HOOKERTON, NC","huc8":"03020203","startYr":1928,"endYr":2021,"nYears":93,"STREAM_NAM":null,"status":"Very Dry","flow":213.14,"julian":138,"date":"May-18","flow50":376.93},"geometry":{"type":"Point","coordinates":[-77.5825,35.4288889]}},{"type":"Feature","properties":{"site":"02091814","name":"NEUSE RIVER NEAR FORT BARNWELL, NC","huc8":"03020202","startYr":1996,"endYr":2021,"nYears":25,"STREAM_NAM":null,"status":"Very Dry","flow":1264.29,"julian":138,"date":"May-18","flow50":2875.71},"geometry":{"type":"Point","coordinates":[-77.3027778,35.3138889]}},{"type":"Feature","properties":{"site":"02092500","name":"TRENT RIVER NEAR TRENTON, NC","huc8":"03020204","startYr":1951,"endYr":2021,"nYears":70,"STREAM_NAM":null,"status":"Very Dry","flow":13.36,"julian":138,"date":"May-18","flow50":41.89},"geometry":{"type":"Point","coordinates":[-77.4613889,35.0641667]}},{"type":"Feature","properties":{"site":"02093800","name":"REEDY FORK NEAR OAK RIDGE, NC","huc8":"03030002","startYr":1955,"endYr":2021,"nYears":66,"STREAM_NAM":"Reedy Fork","status":"Moderately Wet","flow":21.49,"julian":138,"date":"May-18","flow50":16.69},"geometry":{"type":"Point","coordinates":[-79.9527778,36.1725]}},{"type":"Feature","properties":{"site":"02093877","name":"BRUSH CREEK AT MUIRFIELD RD AT GREENSBORO, NC","huc8":"03030002","startYr":2004,"endYr":2021,"nYears":17,"STREAM_NAM":"Reedy Fork","status":"Moderately Dry","flow":3.61,"julian":138,"date":"May-18","flow50":3.99},"geometry":{"type":"Point","coordinates":[-79.9238889,36.1280556]}},{"type":"Feature","properties":{"site":"0209399200","name":"HORSEPEN CREEK AT US 220 NR GREENSBORO, NC","huc8":"03030002","startYr":1999,"endYr":2021,"nYears":22,"STREAM_NAM":"Reedy Fork","status":"Very Dry","flow":7.32,"julian":138,"date":"May-18","flow50":12.22},"geometry":{"type":"Point","coordinates":[-79.86,36.1377778]}},{"type":"Feature","properties":{"site":"02094500","name":"REEDY FORK NEAR GIBSONVILLE, NC","huc8":"03030002","startYr":1928,"endYr":2021,"nYears":93,"STREAM_NAM":null,"status":"Moderately Wet","flow":45.63,"julian":138,"date":"May-18","flow50":26.83},"geometry":{"type":"Point","coordinates":[-79.6141667,36.1730556]}},{"type":"Feature","properties":{"site":"02094659","name":"SOUTH BUFFALO CREEK NR POMONA, NC","huc8":"03030002","startYr":1999,"endYr":2021,"nYears":22,"STREAM_NAM":null,"status":"Extremely Dry","flow":2.22,"julian":138,"date":"May-18","flow50":5.05},"geometry":{"type":"Point","coordinates":[-79.8552778,36.0494444]}},{"type":"Feature","properties":{"site":"02094770","name":"SOUTH BUFFALO CREEK AT US 220 AT GREENSBORO, NC","huc8":"03030002","startYr":1998,"endYr":2021,"nYears":23,"STREAM_NAM":null,"status":"Very Dry","flow":4.93,"julian":138,"date":"May-18","flow50":10.66},"geometry":{"type":"Point","coordinates":[-79.7997222,36.0380556]}},{"type":"Feature","properties":{"site":"02094775","name":"RYAN CREEK BELOW US 220 AT GREENSBORO, NC","huc8":"03030002","startYr":1998,"endYr":2021,"nYears":23,"STREAM_NAM":null,"status":"Extremely Dry","flow":0.87,"julian":138,"date":"May-18","flow50":2.15},"geometry":{"type":"Point","coordinates":[-79.7961111,36.0311111]}},{"type":"Feature","properties":{"site":"02095000","name":"SOUTH BUFFALO CR NEAR GREENSBORO, NC","huc8":"03030002","startYr":1928,"endYr":2021,"nYears":93,"STREAM_NAM":null,"status":"Extremely Dry","flow":7.95,"julian":138,"date":"May-18","flow50":20.3},"geometry":{"type":"Point","coordinates":[-79.7258333,36.06]}},{"type":"Feature","properties":{"site":"02095181","name":"N BUFFALO CR AT WESTOVER TERRACE AT GREENSBORO, NC","huc8":"03030002","startYr":1999,"endYr":2021,"nYears":22,"STREAM_NAM":null,"status":"Extremely Dry","flow":1.79,"julian":138,"date":"May-18","flow50":5.69},"geometry":{"type":"Point","coordinates":[-79.8127778,36.0791667]}},{"type":"Feature","properties":{"site":"02095271","name":"NORTH BUFFALO CREEK AT CHURCH ST AT GREENSBORO, NC","huc8":"03030002","startYr":1998,"endYr":2021,"nYears":23,"STREAM_NAM":null,"status":"Extremely Dry","flow":5.18,"julian":138,"date":"May-18","flow50":10.8},"geometry":{"type":"Point","coordinates":[-79.7825,36.0977778]}},{"type":"Feature","properties":{"site":"02095500","name":"NORTH BUFFALO CREEK NEAR GREENSBORO, NC","huc8":"03030002","startYr":1928,"endYr":2021,"nYears":93,"STREAM_NAM":null,"status":"Extremely Dry","flow":11.72,"julian":138,"date":"May-18","flow50":38.81},"geometry":{"type":"Point","coordinates":[-79.7080556,36.1205556]}},{"type":"Feature","properties":{"site":"0209553650","name":"BUFFALO CREEK AT SR2819 NR MCLEANSVILLE, NC","huc8":"03030002","startYr":1998,"endYr":2021,"nYears":23,"STREAM_NAM":null,"status":"Very Dry","flow":72.59,"julian":138,"date":"May-18","flow50":100.94},"geometry":{"type":"Point","coordinates":[-79.6616667,36.1280556]}},{"type":"Feature","properties":{"site":"02096500","name":"HAW RIVER AT HAW RIVER, NC","huc8":"03030002","startYr":1928,"endYr":2021,"nYears":93,"STREAM_NAM":null,"status":"Moderately Dry","flow":283.57,"julian":138,"date":"May-18","flow50":286.71},"geometry":{"type":"Point","coordinates":[-79.3661111,36.0872222]}},{"type":"Feature","properties":{"site":"02096846","name":"CANE CREEK NEAR ORANGE GROVE, NC","huc8":"03030002","startYr":1988,"endYr":2021,"nYears":33,"STREAM_NAM":"Cane Creek","status":"Moderately Dry","flow":1.38,"julian":138,"date":"May-18","flow50":2.12},"geometry":{"type":"Point","coordinates":[-79.2061111,35.9872222]}},{"type":"Feature","properties":{"site":"02096960","name":"HAW RIVER NEAR BYNUM, NC","huc8":"03030002","startYr":1973,"endYr":2021,"nYears":48,"STREAM_NAM":"Haw River (Jordan Lake)","status":"Moderately Dry","flow":545.43,"julian":138,"date":"May-18","flow50":546.5},"geometry":{"type":"Point","coordinates":[-79.1358333,35.7652778]}},{"type":"Feature","properties":{"site":"0209722970","name":"SANDY CREEK AT CORNWALLIS RD NEAR DURHAM, NC","huc8":"03030002","startYr":2008,"endYr":2021,"nYears":13,"STREAM_NAM":null,"status":"Extremely Dry","flow":0.68,"julian":138,"date":"May-18","flow50":3.79},"geometry":{"type":"Point","coordinates":[-78.9568056,35.9832222]}},{"type":"Feature","properties":{"site":"02097280","name":"THIRD FORK CR AT WOODCROFT PARKWAY NR BLANDS, NC","huc8":"03030002","startYr":2008,"endYr":2021,"nYears":13,"STREAM_NAM":"Haw River (Jordan Lake)","status":"Extremely Dry","flow":0.51,"julian":138,"date":"May-18","flow50":11.92},"geometry":{"type":"Point","coordinates":[-78.9524167,35.9226389]}},{"type":"Feature","properties":{"site":"02097314","name":"NEW HOPE CREEK NEAR BLANDS, NC","huc8":"03030002","startYr":1982,"endYr":2021,"nYears":39,"STREAM_NAM":"Haw River (Jordan Lake)","status":"Moderately Dry","flow":34.74,"julian":138,"date":"May-18","flow50":39.69},"geometry":{"type":"Point","coordinates":[-78.9652778,35.885]}},{"type":"Feature","properties":{"site":"0209734440","name":"BOLIN CREEK AT VILLAGE DRIVE AT CHAPEL HILL, NC","huc8":"03030002","startYr":2012,"endYr":2021,"nYears":9,"STREAM_NAM":null,"status":"Very Dry","flow":1.05,"julian":138,"date":"May-18","flow50":3.95},"geometry":{"type":"Point","coordinates":[-79.066,35.9223056]}},{"type":"Feature","properties":{"site":"0209741955","name":"NORTHEAST CREEK AT SR1100 NR GENLEE, NC","huc8":"03030002","startYr":1982,"endYr":2021,"nYears":39,"STREAM_NAM":"Haw River (Jordan Lake)","status":"Very Wet","flow":29.47,"julian":138,"date":"May-18","flow50":11.69},"geometry":{"type":"Point","coordinates":[-78.9130556,35.8722222]}},{"type":"Feature","properties":{"site":"02097464","name":"MORGAN CREEK NEAR WHITE CROSS, NC","huc8":"03030002","startYr":1988,"endYr":2021,"nYears":33,"STREAM_NAM":"Morgan Creek","status":"Very Dry","flow":1.86,"julian":138,"date":"May-18","flow50":3.36},"geometry":{"type":"Point","coordinates":[-79.115,35.9236111]}},{"type":"Feature","properties":{"site":"02097517","name":"MORGAN CREEK NEAR CHAPEL HILL, NC","huc8":"03030002","startYr":1982,"endYr":2021,"nYears":39,"STREAM_NAM":"Haw River (Jordan Lake)","status":"Extremely Dry","flow":11.5,"julian":138,"date":"May-18","flow50":19.91},"geometry":{"type":"Point","coordinates":[-79.0197222,35.8933333]}},{"type":"Feature","properties":{"site":"0209782609","name":"WHITE OAK CR AT MOUTH NEAR GREEN LEVEL, NC","huc8":"03030002","startYr":1999,"endYr":2021,"nYears":22,"STREAM_NAM":"Haw River (Jordan Lake)","status":"Moderately Dry","flow":2.87,"julian":138,"date":"May-18","flow50":4.37},"geometry":{"type":"Point","coordinates":[-78.9202778,35.7602778]}},{"type":"Feature","properties":{"site":"02098206","name":"HAW RIVER NEAR MONCURE, NC","huc8":"03030002","startYr":2011,"endYr":2021,"nYears":10,"STREAM_NAM":"Cape Fear River (Sanford)","status":"Moderately Dry","flow":681.57,"julian":138,"date":"May-18","flow50":803.86},"geometry":{"type":"Point","coordinates":[-79.06,35.6322222]}},{"type":"Feature","properties":{"site":"02099000","name":"EAST FORK DEEP RIVER NEAR HIGH POINT, NC","huc8":"03030003","startYr":1928,"endYr":2021,"nYears":93,"STREAM_NAM":"East Fork Deep River (High Point Lake)","status":"Extremely Dry","flow":4.17,"julian":138,"date":"May-18","flow50":9.97},"geometry":{"type":"Point","coordinates":[-79.9455556,36.0372222]}},{"type":"Feature","properties":{"site":"02100500","name":"DEEP RIVER AT RAMSEUR, NC","huc8":"03030003","startYr":1923,"endYr":2021,"nYears":98,"STREAM_NAM":null,"status":"Moderately Dry","flow":147.07,"julian":138,"date":"May-18","flow50":159},"geometry":{"type":"Point","coordinates":[-79.6555556,35.7263889]}},{"type":"Feature","properties":{"site":"0210166029","name":"ROCKY R AT SR1300 NR CRUTCHFIELD CROSSROADS, NC","huc8":"03030003","startYr":1988,"endYr":2021,"nYears":33,"STREAM_NAM":"Rocky River","status":"Moderately Wet","flow":2.99,"julian":138,"date":"May-18","flow50":2.29},"geometry":{"type":"Point","coordinates":[-79.5275,35.8069444]}},{"type":"Feature","properties":{"site":"02101726","name":"ROCKY R AT US 64 NEAR SILER CITY, NC","huc8":"03030003","startYr":2009,"endYr":2021,"nYears":12,"STREAM_NAM":null,"status":"Moderately Dry","flow":11.31,"julian":138,"date":"May-18","flow50":11.84},"geometry":{"type":"Point","coordinates":[-79.4230754,35.7351405]}},{"type":"Feature","properties":{"site":"02101800","name":"TICK CREEK NEAR MOUNT VERNON SPRINGS, NC","huc8":"03030003","startYr":1958,"endYr":2021,"nYears":63,"STREAM_NAM":null,"status":"Moderately Wet","flow":4.78,"julian":138,"date":"May-18","flow50":2.32},"geometry":{"type":"Point","coordinates":[-79.4016667,35.6597222]}},{"type":"Feature","properties":{"site":"02102000","name":"DEEP RIVER AT MONCURE, NC","huc8":"03030003","startYr":1930,"endYr":2021,"nYears":91,"STREAM_NAM":"Cape Fear River (Sanford)","status":"Moderately Dry","flow":449.86,"julian":138,"date":"May-18","flow50":495.86},"geometry":{"type":"Point","coordinates":[-79.1161111,35.6269444]}},{"type":"Feature","properties":{"site":"02102192","name":"BUCKHORN CREEK NR CORINTH, NC","huc8":"03030004","startYr":1972,"endYr":2021,"nYears":49,"STREAM_NAM":null,"status":"Moderately Dry","flow":15.13,"julian":138,"date":"May-18","flow50":17.06},"geometry":{"type":"Point","coordinates":[-78.9736111,35.5597222]}},{"type":"Feature","properties":{"site":"02102500","name":"CAPE FEAR RIVER AT LILLINGTON, NC","huc8":"03030004","startYr":1924,"endYr":2021,"nYears":97,"STREAM_NAM":"Cape Fear River (Dunn)","status":"Moderately Dry","flow":1034.07,"julian":138,"date":"May-18","flow50":1262.93},"geometry":{"type":"Point","coordinates":[-78.8133333,35.4061111]}},{"type":"Feature","properties":{"site":"02102908","name":"FLAT CREEK NEAR INVERNESS, NC","huc8":"03030004","startYr":1968,"endYr":2021,"nYears":53,"STREAM_NAM":"Little River (Intake no. 2)","status":"Very Wet","flow":11.94,"julian":138,"date":"May-18","flow50":7.09},"geometry":{"type":"Point","coordinates":[-79.1775,35.1827778]}},{"type":"Feature","properties":{"site":"02103000","name":"LITTLE RIVER AT MANCHESTER, NC","huc8":"03030004","startYr":1938,"endYr":2021,"nYears":83,"STREAM_NAM":null,"status":"Moderately Dry","flow":165.43,"julian":138,"date":"May-18","flow50":171.86},"geometry":{"type":"Point","coordinates":[-78.9855556,35.1933333]}},{"type":"Feature","properties":{"site":"02104220","name":"ROCKFISH CREEK AT RAEFORD, NC","huc8":"03030004","startYr":1988,"endYr":2021,"nYears":33,"STREAM_NAM":null,"status":"Very Wet","flow":118.71,"julian":138,"date":"May-18","flow50":80.54},"geometry":{"type":"Point","coordinates":[-79.2147222,34.9997222]}}]}