{"type":"FeatureCollection","features":[{"type":"Feature","properties":{"site":"02085000","name":"ENO RIVER AT HILLSBOROUGH, NC","huc8":"03020201","startYr":1927,"endYr":2021,"nYears":94,"STREAM_NAM":null,"status":"Moderately Dry","flow":2.95,"julian":263,"date":"Sep-20","flow50":4.48},"geometry":{"type":"Point","coordinates":[-79.0955556,36.0711111]}},{"type":"Feature","properties":{"site":"02085070","name":"ENO RIVER NEAR DURHAM, NC","huc8":"03020201","startYr":1963,"endYr":2021,"nYears":58,"STREAM_NAM":"Eno River (Lower)","status":"Moderately Dry","flow":6.29,"julian":263,"date":"Sep-20","flow50":10.23},"geometry":{"type":"Point","coordinates":[-78.9077778,36.0722222]}},{"type":"Feature","properties":{"site":"0208521324","name":"LITTLE RIVER AT SR1461 NEAR ORANGE FACTORY, NC","huc8":"03020201","startYr":1987,"endYr":2021,"nYears":34,"STREAM_NAM":"Little River (Little River Reservoir)","status":"Very Dry","flow":0.39,"julian":263,"date":"Sep-20","flow50":4.26},"geometry":{"type":"Point","coordinates":[-78.9191667,36.1416667]}},{"type":"Feature","properties":{"site":"0208524090","name":"MOUNTAIN CREEK AT SR1617 NR BAHAMA, NC","huc8":"03020201","startYr":1994,"endYr":2021,"nYears":27,"STREAM_NAM":"Little River (Little River Reservoir)","status":"Extremely Dry","flow":0,"julian":263,"date":"Sep-20","flow50":0.34},"geometry":{"type":"Point","coordinates":[-78.8966667,36.1497222]}},{"type":"Feature","properties":{"site":"0208524975","name":"LITTLE R BL LITTLE R TRIB AT FAIRNTOSH, NC","huc8":"03020201","startYr":1995,"endYr":2021,"nYears":26,"STREAM_NAM":"Falls Lake","status":"Extremely Dry","flow":1.33,"julian":263,"date":"Sep-20","flow50":3.84},"geometry":{"type":"Point","coordinates":[-78.8597222,36.1133333]}},{"type":"Feature","properties":{"site":"02085500","name":"FLAT RIVER AT BAHAMA, NC","huc8":"03020201","startYr":1925,"endYr":2021,"nYears":96,"STREAM_NAM":"Flat River (Lake Michie)","status":"Very Dry","flow":1.69,"julian":263,"date":"Sep-20","flow50":6.2},"geometry":{"type":"Point","coordinates":[-78.8788889,36.1827778]}},{"type":"Feature","properties":{"site":"02086500","name":"FLAT RIVER AT DAM NEAR BAHAMA, NC","huc8":"03020201","startYr":1927,"endYr":2021,"nYears":94,"STREAM_NAM":"Falls Lake","status":"Moderately Wet","flow":2,"julian":263,"date":"Sep-20","flow50":1.35},"geometry":{"type":"Point","coordinates":[-78.8288889,36.1486111]}},{"type":"Feature","properties":{"site":"02086624","name":"KNAP OF REEDS CREEK NEAR BUTNER, NC","huc8":"03020201","startYr":1982,"endYr":2021,"nYears":39,"STREAM_NAM":"Falls Lake","status":"Extremely Dry","flow":2.45,"julian":263,"date":"Sep-20","flow50":3.84},"geometry":{"type":"Point","coordinates":[-78.7983389,36.1279222]}},{"type":"Feature","properties":{"site":"0208675010","name":"ELLERBE CREEK AT CLUB BOULEVARD AT DURHAM, NC","huc8":"03020201","startYr":2008,"endYr":2021,"nYears":13,"STREAM_NAM":"Falls Lake","status":"Extremely Dry","flow":0.1,"julian":263,"date":"Sep-20","flow50":0.8},"geometry":{"type":"Point","coordinates":[-78.8947778,36.0193889]}},{"type":"Feature","properties":{"site":"02086849","name":"ELLERBE CREEK NEAR GORMAN, NC","huc8":"03020201","startYr":1982,"endYr":2021,"nYears":39,"STREAM_NAM":"Falls Lake","status":"Moderately Dry","flow":16.53,"julian":263,"date":"Sep-20","flow50":17},"geometry":{"type":"Point","coordinates":[-78.8325065,36.0593111]}},{"type":"Feature","properties":{"site":"02087183","name":"NEUSE RIVER NEAR FALLS, NC","huc8":"03020201","startYr":1970,"endYr":2021,"nYears":51,"STREAM_NAM":"Neuse River (Wake Forest)","status":"Extremely Dry","flow":104.29,"julian":263,"date":"Sep-20","flow50":138},"geometry":{"type":"Point","coordinates":[-78.5808333,35.94]}},{"type":"Feature","properties":{"site":"0208726005","name":"CRABTREE CR AT EBENEZER CHURCH RD NR RALEIGH, NC","huc8":"03020201","startYr":1987,"endYr":2021,"nYears":34,"STREAM_NAM":null,"status":"Moderately Wet","flow":25.61,"julian":263,"date":"Sep-20","flow50":24.63},"geometry":{"type":"Point","coordinates":[-78.7244444,35.8452778]}},{"type":"Feature","properties":{"site":"02087275","name":"CRABTREE CREEK AT HWY 70 AT RALEIGH, NC","huc8":"03020201","startYr":1997,"endYr":2021,"nYears":24,"STREAM_NAM":null,"status":"Moderately Wet","flow":32.61,"julian":263,"date":"Sep-20","flow50":32.61},"geometry":{"type":"Point","coordinates":[-78.6741667,35.8380556]}},{"type":"Feature","properties":{"site":"02087324","name":"CRABTREE CREEK AT US 1 AT RALEIGH, NC","huc8":"03020201","startYr":1990,"endYr":2021,"nYears":31,"STREAM_NAM":null,"status":"Moderately Wet","flow":51.21,"julian":263,"date":"Sep-20","flow50":51.21},"geometry":{"type":"Point","coordinates":[-78.6108333,35.8111111]}},{"type":"Feature","properties":{"site":"0208732534","name":"PIGEON HOUSE CR AT CAMERON VILLAGE AT RALEIGH, NC","huc8":"03020201","startYr":1987,"endYr":2021,"nYears":34,"STREAM_NAM":null,"status":"Extremely Dry","flow":0.06,"julian":263,"date":"Sep-20","flow50":0.33},"geometry":{"type":"Point","coordinates":[-78.6547222,35.7875]}},{"type":"Feature","properties":{"site":"0208732885","name":"MARSH CREEK NEAR NEW HOPE, NC","huc8":"03020201","startYr":1984,"endYr":2021,"nYears":37,"STREAM_NAM":null,"status":"Moderately Dry","flow":1.86,"julian":263,"date":"Sep-20","flow50":2.25},"geometry":{"type":"Point","coordinates":[-78.5930556,35.8169444]}},{"type":"Feature","properties":{"site":"0208735012","name":"ROCKY BRANCH BELOW PULLEN ROAD AT RALEIGH, NC","huc8":"03020201","startYr":1992,"endYr":2021,"nYears":29,"STREAM_NAM":null,"status":"Moderately Dry","flow":0.63,"julian":263,"date":"Sep-20","flow50":1.5},"geometry":{"type":"Point","coordinates":[-78.6663889,35.78]}},{"type":"Feature","properties":{"site":"02087359","name":"WALNUT CREEK AT SUNNYBROOK DRIVE NR RALEIGH, NC","huc8":"03020201","startYr":1996,"endYr":2021,"nYears":25,"STREAM_NAM":null,"status":"Moderately Dry","flow":6.7,"julian":263,"date":"Sep-20","flow50":10.83},"geometry":{"type":"Point","coordinates":[-78.5830556,35.7583333]}},{"type":"Feature","properties":{"site":"02087500","name":"NEUSE RIVER NEAR CLAYTON, NC","huc8":"03020201","startYr":1927,"endYr":2021,"nYears":94,"STREAM_NAM":"Neuse River (Johnston County)","status":"Moderately Dry","flow":306.71,"julian":263,"date":"Sep-20","flow50":338.71},"geometry":{"type":"Point","coordinates":[-78.4052778,35.6472222]}},{"type":"Feature","properties":{"site":"02087580","name":"SWIFT CREEK NEAR APEX, NC","huc8":"03020201","startYr":2002,"endYr":2021,"nYears":19,"STREAM_NAM":"Swift Creek (Lake Benson)","status":"Very Dry","flow":0.45,"julian":263,"date":"Sep-20","flow50":6.67},"geometry":{"type":"Point","coordinates":[-78.7522222,35.7188889]}},{"type":"Feature","properties":{"site":"0208758850","name":"SWIFT CREEK NEAR MCCULLARS CROSSROADS, NC","huc8":"03020201","startYr":1987,"endYr":2021,"nYears":34,"STREAM_NAM":"Swift Creek (Lake Benson)","status":"Moderately Wet","flow":16.11,"julian":263,"date":"Sep-20","flow50":8.08},"geometry":{"type":"Point","coordinates":[-78.6922222,35.6936111]}},{"type":"Feature","properties":{"site":"0208773375","name":"SWIFT CREEK AT SR1555 NEAR CLAYTON, NC","huc8":"03020201","startYr":2008,"endYr":2021,"nYears":13,"STREAM_NAM":null,"status":"Moderately Dry","flow":12.19,"julian":263,"date":"Sep-20","flow50":12.57},"geometry":{"type":"Point","coordinates":[-78.4986111,35.575]}},{"type":"Feature","properties":{"site":"02088000","name":"MIDDLE CREEK NEAR CLAYTON, NC","huc8":"03020201","startYr":1939,"endYr":2021,"nYears":82,"STREAM_NAM":null,"status":"Moderately Dry","flow":18.84,"julian":263,"date":"Sep-20","flow50":19.57},"geometry":{"type":"Point","coordinates":[-78.5905556,35.5708333]}},{"type":"Feature","properties":{"site":"02088383","name":"LITTLE RIVER NEAR ZEBULON, NC","huc8":"03020201","startYr":2008,"endYr":2021,"nYears":13,"STREAM_NAM":null,"status":"Moderately Dry","flow":5.28,"julian":263,"date":"Sep-20","flow50":6.18},"geometry":{"type":"Point","coordinates":[-78.3522222,35.8219444]}},{"type":"Feature","properties":{"site":"02088500","name":"LITTLE RIVER NEAR PRINCETON, NC","huc8":"03020201","startYr":1930,"endYr":2021,"nYears":91,"STREAM_NAM":null,"status":"Moderately Dry","flow":16.01,"julian":263,"date":"Sep-20","flow50":32.91},"geometry":{"type":"Point","coordinates":[-78.1602778,35.5113889]}},{"type":"Feature","properties":{"site":"02089000","name":"NEUSE RIVER NEAR GOLDSBORO, NC","huc8":"03020202","startYr":1930,"endYr":2021,"nYears":91,"STREAM_NAM":null,"status":"Very Dry","flow":443.29,"julian":263,"date":"Sep-20","flow50":632.86},"geometry":{"type":"Point","coordinates":[-77.9975,35.3375]}},{"type":"Feature","properties":{"site":"02089500","name":"NEUSE RIVER AT KINSTON, NC","huc8":"03020202","startYr":1930,"endYr":2021,"nYears":91,"STREAM_NAM":null,"status":"Very Dry","flow":612.57,"julian":263,"date":"Sep-20","flow50":807.14},"geometry":{"type":"Point","coordinates":[-77.5855556,35.2577778]}},{"type":"Feature","properties":{"site":"02090380","name":"CONTENTNEA CREEK NEAR LUCAMA, NC","huc8":"03020203","startYr":1964,"endYr":2021,"nYears":57,"STREAM_NAM":null,"status":"Moderately Dry","flow":31.17,"julian":263,"date":"Sep-20","flow50":31.56},"geometry":{"type":"Point","coordinates":[-78.1097222,35.6911111]}},{"type":"Feature","properties":{"site":"02091000","name":"NAHUNTA SWAMP NEAR SHINE, NC","huc8":"03020203","startYr":1954,"endYr":2021,"nYears":67,"STREAM_NAM":null,"status":"Moderately Dry","flow":15.99,"julian":263,"date":"Sep-20","flow50":25.54},"geometry":{"type":"Point","coordinates":[-77.8061111,35.4888889]}},{"type":"Feature","properties":{"site":"02091500","name":"CONTENTNEA CREEK AT HOOKERTON, NC","huc8":"03020203","startYr":1928,"endYr":2021,"nYears":93,"STREAM_NAM":null,"status":"Moderately Dry","flow":201.43,"julian":263,"date":"Sep-20","flow50":221.86},"geometry":{"type":"Point","coordinates":[-77.5825,35.4288889]}},{"type":"Feature","properties":{"site":"02091814","name":"NEUSE RIVER NEAR FORT BARNWELL, NC","huc8":"03020202","startYr":1996,"endYr":2021,"nYears":25,"STREAM_NAM":null,"status":"Moderately Dry","flow":1034.86,"julian":263,"date":"Sep-20","flow50":1435.71},"geometry":{"type":"Point","coordinates":[-77.3027778,35.3138889]}},{"type":"Feature","properties":{"site":"02092500","name":"TRENT RIVER NEAR TRENTON, NC","huc8":"03020204","startYr":1951,"endYr":2021,"nYears":70,"STREAM_NAM":null,"status":"Moderately Dry","flow":20.11,"julian":263,"date":"Sep-20","flow50":47.04},"geometry":{"type":"Point","coordinates":[-77.4613889,35.0641667]}},{"type":"Feature","properties":{"site":"02093800","name":"REEDY FORK NEAR OAK RIDGE, NC","huc8":"03030002","startYr":1955,"endYr":2021,"nYears":66,"STREAM_NAM":"Reedy Fork","status":"Moderately Wet","flow":10.99,"julian":263,"date":"Sep-20","flow50":7.79},"geometry":{"type":"Point","coordinates":[-79.9527778,36.1725]}},{"type":"Feature","properties":{"site":"02093877","name":"BRUSH CREEK AT MUIRFIELD RD AT GREENSBORO, NC","huc8":"03030002","startYr":2004,"endYr":2021,"nYears":17,"STREAM_NAM":"Reedy Fork","status":"Moderately Dry","flow":1.14,"julian":263,"date":"Sep-20","flow50":1.87},"geometry":{"type":"Point","coordinates":[-79.9238889,36.1280556]}},{"type":"Feature","properties":{"site":"0209399200","name":"HORSEPEN CREEK AT US 220 NR GREENSBORO, NC","huc8":"03030002","startYr":1999,"endYr":2021,"nYears":22,"STREAM_NAM":"Reedy Fork","status":"Extremely Dry","flow":1.91,"julian":263,"date":"Sep-20","flow50":5.95},"geometry":{"type":"Point","coordinates":[-79.86,36.1377778]}},{"type":"Feature","properties":{"site":"02094500","name":"REEDY FORK NEAR GIBSONVILLE, NC","huc8":"03030002","startYr":1928,"endYr":2021,"nYears":93,"STREAM_NAM":null,"status":"Moderately Wet","flow":8.18,"julian":263,"date":"Sep-20","flow50":8.18},"geometry":{"type":"Point","coordinates":[-79.6141667,36.1730556]}},{"type":"Feature","properties":{"site":"02094659","name":"SOUTH BUFFALO CREEK NR POMONA, NC","huc8":"03030002","startYr":1999,"endYr":2021,"nYears":22,"STREAM_NAM":null,"status":"Extremely Dry","flow":0.57,"julian":263,"date":"Sep-20","flow50":5.68},"geometry":{"type":"Point","coordinates":[-79.8552778,36.0494444]}},{"type":"Feature","properties":{"site":"02094770","name":"SOUTH BUFFALO CREEK AT US 220 AT GREENSBORO, NC","huc8":"03030002","startYr":1998,"endYr":2021,"nYears":23,"STREAM_NAM":null,"status":"Extremely Dry","flow":2.03,"julian":263,"date":"Sep-20","flow50":6.04},"geometry":{"type":"Point","coordinates":[-79.7997222,36.0380556]}},{"type":"Feature","properties":{"site":"02094775","name":"RYAN CREEK BELOW US 220 AT GREENSBORO, NC","huc8":"03030002","startYr":1998,"endYr":2021,"nYears":23,"STREAM_NAM":null,"status":"Extremely Dry","flow":0.2,"julian":263,"date":"Sep-20","flow50":1.07},"geometry":{"type":"Point","coordinates":[-79.7961111,36.0311111]}},{"type":"Feature","properties":{"site":"02095000","name":"SOUTH BUFFALO CR NEAR GREENSBORO, NC","huc8":"03030002","startYr":1928,"endYr":2021,"nYears":93,"STREAM_NAM":null,"status":"Very Dry","flow":2.34,"julian":263,"date":"Sep-20","flow50":14.18},"geometry":{"type":"Point","coordinates":[-79.7258333,36.06]}},{"type":"Feature","properties":{"site":"02095181","name":"N BUFFALO CR AT WESTOVER TERRACE AT GREENSBORO, NC","huc8":"03030002","startYr":1999,"endYr":2021,"nYears":22,"STREAM_NAM":null,"status":"Very Dry","flow":1.2,"julian":263,"date":"Sep-20","flow50":5.24},"geometry":{"type":"Point","coordinates":[-79.8127778,36.0791667]}},{"type":"Feature","properties":{"site":"02095271","name":"NORTH BUFFALO CREEK AT CHURCH ST AT GREENSBORO, NC","huc8":"03030002","startYr":1998,"endYr":2021,"nYears":23,"STREAM_NAM":null,"status":"Very Dry","flow":2.56,"julian":263,"date":"Sep-20","flow50":9.41},"geometry":{"type":"Point","coordinates":[-79.7825,36.0977778]}},{"type":"Feature","properties":{"site":"02095500","name":"NORTH BUFFALO CREEK NEAR GREENSBORO, NC","huc8":"03030002","startYr":1928,"endYr":2021,"nYears":93,"STREAM_NAM":null,"status":"Extremely Dry","flow":5.31,"julian":263,"date":"Sep-20","flow50":30.39},"geometry":{"type":"Point","coordinates":[-79.7080556,36.1205556]}},{"type":"Feature","properties":{"site":"0209553650","name":"BUFFALO CREEK AT SR2819 NR MCLEANSVILLE, NC","huc8":"03030002","startYr":1998,"endYr":2021,"nYears":23,"STREAM_NAM":null,"status":"Moderately Dry","flow":58.64,"julian":263,"date":"Sep-20","flow50":75.28},"geometry":{"type":"Point","coordinates":[-79.6616667,36.1280556]}},{"type":"Feature","properties":{"site":"02096500","name":"HAW RIVER AT HAW RIVER, NC","huc8":"03030002","startYr":1928,"endYr":2021,"nYears":93,"STREAM_NAM":null,"status":"Very Dry","flow":102.49,"julian":263,"date":"Sep-20","flow50":144},"geometry":{"type":"Point","coordinates":[-79.3661111,36.0872222]}},{"type":"Feature","properties":{"site":"02096846","name":"CANE CREEK NEAR ORANGE GROVE, NC","huc8":"03030002","startYr":1988,"endYr":2021,"nYears":33,"STREAM_NAM":"Cane Creek","status":"Moderately Wet","flow":0.33,"julian":263,"date":"Sep-20","flow50":0.16},"geometry":{"type":"Point","coordinates":[-79.2061111,35.9872222]}},{"type":"Feature","properties":{"site":"02096960","name":"HAW RIVER NEAR BYNUM, NC","huc8":"03030002","startYr":1973,"endYr":2021,"nYears":48,"STREAM_NAM":"Haw River (Jordan Lake)","status":"Very Dry","flow":114.2,"julian":263,"date":"Sep-20","flow50":182.71},"geometry":{"type":"Point","coordinates":[-79.1358333,35.7652778]}},{"type":"Feature","properties":{"site":"0209722970","name":"SANDY CREEK AT CORNWALLIS RD NEAR DURHAM, NC","huc8":"03030002","startYr":2008,"endYr":2021,"nYears":13,"STREAM_NAM":null,"status":"Extremely Dry","flow":0.2,"julian":263,"date":"Sep-20","flow50":1.42},"geometry":{"type":"Point","coordinates":[-78.9568056,35.9832222]}},{"type":"Feature","properties":{"site":"02097280","name":"THIRD FORK CR AT WOODCROFT PARKWAY NR BLANDS, NC","huc8":"03030002","startYr":2008,"endYr":2021,"nYears":13,"STREAM_NAM":"Haw River (Jordan Lake)","status":"Moderately Dry","flow":0.76,"julian":263,"date":"Sep-20","flow50":1.23},"geometry":{"type":"Point","coordinates":[-78.9524167,35.9226389]}},{"type":"Feature","properties":{"site":"02097314","name":"NEW HOPE CREEK NEAR BLANDS, NC","huc8":"03030002","startYr":1982,"endYr":2021,"nYears":39,"STREAM_NAM":"Haw River (Jordan Lake)","status":"Moderately Dry","flow":17.05,"julian":263,"date":"Sep-20","flow50":20.59},"geometry":{"type":"Point","coordinates":[-78.9652778,35.885]}},{"type":"Feature","properties":{"site":"0209734440","name":"BOLIN CREEK AT VILLAGE DRIVE AT CHAPEL HILL, NC","huc8":"03030002","startYr":2012,"endYr":2021,"nYears":9,"STREAM_NAM":null,"status":"Moderately Wet","flow":0.38,"julian":263,"date":"Sep-20","flow50":0.38},"geometry":{"type":"Point","coordinates":[-79.066,35.9223056]}},{"type":"Feature","properties":{"site":"0209741955","name":"NORTHEAST CREEK AT SR1100 NR GENLEE, NC","huc8":"03030002","startYr":1982,"endYr":2021,"nYears":39,"STREAM_NAM":"Haw River (Jordan Lake)","status":"Moderately Wet","flow":19.91,"julian":263,"date":"Sep-20","flow50":12.81},"geometry":{"type":"Point","coordinates":[-78.9130556,35.8722222]}},{"type":"Feature","properties":{"site":"02097464","name":"MORGAN CREEK NEAR WHITE CROSS, NC","huc8":"03030002","startYr":1988,"endYr":2021,"nYears":33,"STREAM_NAM":"Morgan Creek","status":"Moderately Wet","flow":0.62,"julian":263,"date":"Sep-20","flow50":0.52},"geometry":{"type":"Point","coordinates":[-79.115,35.9236111]}},{"type":"Feature","properties":{"site":"02097517","name":"MORGAN CREEK NEAR CHAPEL HILL, NC","huc8":"03030002","startYr":1982,"endYr":2021,"nYears":39,"STREAM_NAM":"Haw River (Jordan Lake)","status":"Very Dry","flow":10.12,"julian":263,"date":"Sep-20","flow50":14.69},"geometry":{"type":"Point","coordinates":[-79.0197222,35.8933333]}},{"type":"Feature","properties":{"site":"0209782609","name":"WHITE OAK CR AT MOUTH NEAR GREEN LEVEL, NC","huc8":"03030002","startYr":1999,"endYr":2021,"nYears":22,"STREAM_NAM":"Haw River (Jordan Lake)","status":"Moderately Dry","flow":0.58,"julian":263,"date":"Sep-20","flow50":0.75},"geometry":{"type":"Point","coordinates":[-78.9202778,35.7602778]}},{"type":"Feature","properties":{"site":"02098206","name":"HAW RIVER NEAR MONCURE, NC","huc8":"03030002","startYr":2011,"endYr":2021,"nYears":10,"STREAM_NAM":"Cape Fear River (Sanford)","status":"Very Wet","flow":529.86,"julian":263,"date":"Sep-20","flow50":487.86},"geometry":{"type":"Point","coordinates":[-79.06,35.6322222]}},{"type":"Feature","properties":{"site":"02099000","name":"EAST FORK DEEP RIVER NEAR HIGH POINT, NC","huc8":"03030003","startYr":1928,"endYr":2021,"nYears":93,"STREAM_NAM":"East Fork Deep River (High Point Lake)","status":"Moderately Dry","flow":6.28,"julian":263,"date":"Sep-20","flow50":7.31},"geometry":{"type":"Point","coordinates":[-79.9455556,36.0372222]}},{"type":"Feature","properties":{"site":"02100500","name":"DEEP RIVER AT RAMSEUR, NC","huc8":"03030003","startYr":1923,"endYr":2021,"nYears":98,"STREAM_NAM":null,"status":"Moderately Dry","flow":46.83,"julian":263,"date":"Sep-20","flow50":69.59},"geometry":{"type":"Point","coordinates":[-79.6555556,35.7263889]}},{"type":"Feature","properties":{"site":"0210166029","name":"ROCKY R AT SR1300 NR CRUTCHFIELD CROSSROADS, NC","huc8":"03030003","startYr":1988,"endYr":2021,"nYears":33,"STREAM_NAM":"Rocky River","status":"Moderately Wet","flow":2.17,"julian":263,"date":"Sep-20","flow50":0.58},"geometry":{"type":"Point","coordinates":[-79.5275,35.8069444]}},{"type":"Feature","properties":{"site":"02101726","name":"ROCKY R AT US 64 NEAR SILER CITY, NC","huc8":"03030003","startYr":2009,"endYr":2021,"nYears":12,"STREAM_NAM":null,"status":"Moderately Dry","flow":2.19,"julian":263,"date":"Sep-20","flow50":2.48},"geometry":{"type":"Point","coordinates":[-79.4230754,35.7351405]}},{"type":"Feature","properties":{"site":"02101800","name":"TICK CREEK NEAR MOUNT VERNON SPRINGS, NC","huc8":"03030003","startYr":1958,"endYr":2021,"nYears":63,"STREAM_NAM":null,"status":"Moderately Wet","flow":0.07,"julian":263,"date":"Sep-20","flow50":0.07},"geometry":{"type":"Point","coordinates":[-79.4016667,35.6597222]}},{"type":"Feature","properties":{"site":"02102000","name":"DEEP RIVER AT MONCURE, NC","huc8":"03030003","startYr":1930,"endYr":2021,"nYears":91,"STREAM_NAM":"Cape Fear River (Sanford)","status":"Moderately Dry","flow":97.76,"julian":263,"date":"Sep-20","flow50":130.29},"geometry":{"type":"Point","coordinates":[-79.1161111,35.6269444]}},{"type":"Feature","properties":{"site":"02102192","name":"BUCKHORN CREEK NR CORINTH, NC","huc8":"03030004","startYr":1972,"endYr":2021,"nYears":49,"STREAM_NAM":null,"status":"Very Wet","flow":8.87,"julian":263,"date":"Sep-20","flow50":1.17},"geometry":{"type":"Point","coordinates":[-78.9736111,35.5597222]}},{"type":"Feature","properties":{"site":"02102500","name":"CAPE FEAR RIVER AT LILLINGTON, NC","huc8":"03030004","startYr":1924,"endYr":2021,"nYears":97,"STREAM_NAM":"Cape Fear River (Dunn)","status":"Moderately Dry","flow":614,"julian":263,"date":"Sep-20","flow50":617.29},"geometry":{"type":"Point","coordinates":[-78.8133333,35.4061111]}},{"type":"Feature","properties":{"site":"02102908","name":"FLAT CREEK NEAR INVERNESS, NC","huc8":"03030004","startYr":1968,"endYr":2021,"nYears":53,"STREAM_NAM":"Little River (Intake no. 2)","status":"Moderately Dry","flow":6.41,"julian":263,"date":"Sep-20","flow50":6.79},"geometry":{"type":"Point","coordinates":[-79.1775,35.1827778]}},{"type":"Feature","properties":{"site":"02103000","name":"LITTLE RIVER AT MANCHESTER, NC","huc8":"03030004","startYr":1938,"endYr":2021,"nYears":83,"STREAM_NAM":null,"status":"Extremely Dry","flow":21.61,"julian":263,"date":"Sep-20","flow50":90.19},"geometry":{"type":"Point","coordinates":[-78.9855556,35.1933333]}},{"type":"Feature","properties":{"site":"02104220","name":"ROCKFISH CREEK AT RAEFORD, NC","huc8":"03030004","startYr":1988,"endYr":2021,"nYears":33,"STREAM_NAM":null,"status":"Moderately Dry","flow":61.29,"julian":263,"date":"Sep-20","flow50":70.26},"geometry":{"type":"Point","coordinates":[-79.2147222,34.9997222]}}]}