{"type":"FeatureCollection","features":[{"type":"Feature","properties":{"site":"02085000","name":"ENO RIVER AT HILLSBOROUGH, NC","huc8":"03020201","startYr":1927,"endYr":2021,"nYears":94,"STREAM_NAM":null,"status":"Moderately Wet","flow":114.89,"julian":81,"date":"Mar-21","flow50":74.23},"geometry":{"type":"Point","coordinates":[-79.0955556,36.0711111]}},{"type":"Feature","properties":{"site":"02085070","name":"ENO RIVER NEAR DURHAM, NC","huc8":"03020201","startYr":1963,"endYr":2021,"nYears":58,"STREAM_NAM":"Eno River (Lower)","status":"Moderately Wet","flow":253.14,"julian":81,"date":"Mar-21","flow50":179.71},"geometry":{"type":"Point","coordinates":[-78.9077778,36.0722222]}},{"type":"Feature","properties":{"site":"0208521324","name":"LITTLE RIVER AT SR1461 NEAR ORANGE FACTORY, NC","huc8":"03020201","startYr":1987,"endYr":2021,"nYears":34,"STREAM_NAM":"Little River (Little River Reservoir)","status":"Moderately Wet","flow":140.17,"julian":81,"date":"Mar-21","flow50":108.43},"geometry":{"type":"Point","coordinates":[-78.9191667,36.1416667]}},{"type":"Feature","properties":{"site":"0208524090","name":"MOUNTAIN CREEK AT SR1617 NR BAHAMA, NC","huc8":"03020201","startYr":1994,"endYr":2021,"nYears":27,"STREAM_NAM":"Little River (Little River Reservoir)","status":"Moderately Wet","flow":13.91,"julian":81,"date":"Mar-21","flow50":12.16},"geometry":{"type":"Point","coordinates":[-78.8966667,36.1497222]}},{"type":"Feature","properties":{"site":"0208524975","name":"LITTLE R BL LITTLE R TRIB AT FAIRNTOSH, NC","huc8":"03020201","startYr":1995,"endYr":2021,"nYears":26,"STREAM_NAM":"Falls Lake","status":"Moderately Wet","flow":128.19,"julian":81,"date":"Mar-21","flow50":107.01},"geometry":{"type":"Point","coordinates":[-78.8597222,36.1133333]}},{"type":"Feature","properties":{"site":"02085500","name":"FLAT RIVER AT BAHAMA, NC","huc8":"03020201","startYr":1925,"endYr":2021,"nYears":96,"STREAM_NAM":"Flat River (Lake Michie)","status":"Moderately Wet","flow":292.43,"julian":81,"date":"Mar-21","flow50":185.57},"geometry":{"type":"Point","coordinates":[-78.8788889,36.1827778]}},{"type":"Feature","properties":{"site":"02086500","name":"FLAT RIVER AT DAM NEAR BAHAMA, NC","huc8":"03020201","startYr":1927,"endYr":2021,"nYears":94,"STREAM_NAM":"Falls Lake","status":"Moderately Wet","flow":338.43,"julian":81,"date":"Mar-21","flow50":149.06},"geometry":{"type":"Point","coordinates":[-78.8288889,36.1486111]}},{"type":"Feature","properties":{"site":"02086624","name":"KNAP OF REEDS CREEK NEAR BUTNER, NC","huc8":"03020201","startYr":1982,"endYr":2021,"nYears":39,"STREAM_NAM":"Falls Lake","status":"Moderately Wet","flow":61.01,"julian":81,"date":"Mar-21","flow50":43},"geometry":{"type":"Point","coordinates":[-78.7983389,36.1279222]}},{"type":"Feature","properties":{"site":"0208675010","name":"ELLERBE CREEK AT CLUB BOULEVARD AT DURHAM, NC","huc8":"03020201","startYr":2008,"endYr":2021,"nYears":13,"STREAM_NAM":"Falls Lake","status":"Moderately Wet","flow":7.76,"julian":81,"date":"Mar-21","flow50":6.6},"geometry":{"type":"Point","coordinates":[-78.8947778,36.0193889]}},{"type":"Feature","properties":{"site":"02086849","name":"ELLERBE CREEK NEAR GORMAN, NC","huc8":"03020201","startYr":1982,"endYr":2021,"nYears":39,"STREAM_NAM":"Falls Lake","status":"Moderately Wet","flow":38.76,"julian":81,"date":"Mar-21","flow50":35.02},"geometry":{"type":"Point","coordinates":[-78.8325065,36.0593111]}},{"type":"Feature","properties":{"site":"02087183","name":"NEUSE RIVER NEAR FALLS, NC","huc8":"03020201","startYr":1970,"endYr":2021,"nYears":51,"STREAM_NAM":"Neuse River (Wake Forest)","status":"Moderately Wet","flow":1165.57,"julian":81,"date":"Mar-21","flow50":618.71},"geometry":{"type":"Point","coordinates":[-78.5808333,35.94]}},{"type":"Feature","properties":{"site":"0208726005","name":"CRABTREE CR AT EBENEZER CHURCH RD NR RALEIGH, NC","huc8":"03020201","startYr":1987,"endYr":2021,"nYears":34,"STREAM_NAM":null,"status":"Moderately Dry","flow":58.46,"julian":81,"date":"Mar-21","flow50":137.08},"geometry":{"type":"Point","coordinates":[-78.7244444,35.8452778]}},{"type":"Feature","properties":{"site":"02087275","name":"CRABTREE CREEK AT HWY 70 AT RALEIGH, NC","huc8":"03020201","startYr":1997,"endYr":2021,"nYears":24,"STREAM_NAM":null,"status":"Very Dry","flow":73.81,"julian":81,"date":"Mar-21","flow50":164.25},"geometry":{"type":"Point","coordinates":[-78.6741667,35.8380556]}},{"type":"Feature","properties":{"site":"02087324","name":"CRABTREE CREEK AT US 1 AT RALEIGH, NC","huc8":"03020201","startYr":1990,"endYr":2021,"nYears":31,"STREAM_NAM":null,"status":"Moderately Dry","flow":98.47,"julian":81,"date":"Mar-21","flow50":179.59},"geometry":{"type":"Point","coordinates":[-78.6108333,35.8111111]}},{"type":"Feature","properties":{"site":"0208732534","name":"PIGEON HOUSE CR AT CAMERON VILLAGE AT RALEIGH, NC","huc8":"03020201","startYr":1987,"endYr":2021,"nYears":34,"STREAM_NAM":null,"status":"Moderately Dry","flow":0.4,"julian":81,"date":"Mar-21","flow50":0.41},"geometry":{"type":"Point","coordinates":[-78.6547222,35.7875]}},{"type":"Feature","properties":{"site":"0208732885","name":"MARSH CREEK NEAR NEW HOPE, NC","huc8":"03020201","startYr":1984,"endYr":2021,"nYears":37,"STREAM_NAM":null,"status":"Moderately Dry","flow":7.6,"julian":81,"date":"Mar-21","flow50":8.66},"geometry":{"type":"Point","coordinates":[-78.5930556,35.8169444]}},{"type":"Feature","properties":{"site":"0208735012","name":"ROCKY BRANCH BELOW PULLEN ROAD AT RALEIGH, NC","huc8":"03020201","startYr":1992,"endYr":2021,"nYears":29,"STREAM_NAM":null,"status":"Moderately Dry","flow":1.2,"julian":81,"date":"Mar-21","flow50":2.08},"geometry":{"type":"Point","coordinates":[-78.6663889,35.78]}},{"type":"Feature","properties":{"site":"02087359","name":"WALNUT CREEK AT SUNNYBROOK DRIVE NR RALEIGH, NC","huc8":"03020201","startYr":1996,"endYr":2021,"nYears":25,"STREAM_NAM":null,"status":"Moderately Dry","flow":35.47,"julian":81,"date":"Mar-21","flow50":39.74},"geometry":{"type":"Point","coordinates":[-78.5830556,35.7583333]}},{"type":"Feature","properties":{"site":"02087500","name":"NEUSE RIVER NEAR CLAYTON, NC","huc8":"03020201","startYr":1927,"endYr":2021,"nYears":94,"STREAM_NAM":"Neuse River (Johnston County)","status":"Moderately Wet","flow":1677.14,"julian":81,"date":"Mar-21","flow50":1390.14},"geometry":{"type":"Point","coordinates":[-78.4052778,35.6472222]}},{"type":"Feature","properties":{"site":"02087580","name":"SWIFT CREEK NEAR APEX, NC","huc8":"03020201","startYr":2002,"endYr":2021,"nYears":19,"STREAM_NAM":"Swift Creek (Lake Benson)","status":"Moderately Dry","flow":16.82,"julian":81,"date":"Mar-21","flow50":20.89},"geometry":{"type":"Point","coordinates":[-78.7522222,35.7188889]}},{"type":"Feature","properties":{"site":"0208758850","name":"SWIFT CREEK NEAR MCCULLARS CROSSROADS, NC","huc8":"03020201","startYr":1987,"endYr":2021,"nYears":34,"STREAM_NAM":"Swift Creek (Lake Benson)","status":"Moderately Dry","flow":38.87,"julian":81,"date":"Mar-21","flow50":40.89},"geometry":{"type":"Point","coordinates":[-78.6922222,35.6936111]}},{"type":"Feature","properties":{"site":"0208773375","name":"SWIFT CREEK AT SR1555 NEAR CLAYTON, NC","huc8":"03020201","startYr":2008,"endYr":2021,"nYears":13,"STREAM_NAM":null,"status":"Very Wet","flow":156.33,"julian":81,"date":"Mar-21","flow50":91.17},"geometry":{"type":"Point","coordinates":[-78.4986111,35.575]}},{"type":"Feature","properties":{"site":"02088000","name":"MIDDLE CREEK NEAR CLAYTON, NC","huc8":"03020201","startYr":1939,"endYr":2021,"nYears":82,"STREAM_NAM":null,"status":"Very Wet","flow":168.43,"julian":81,"date":"Mar-21","flow50":117.57},"geometry":{"type":"Point","coordinates":[-78.5905556,35.5708333]}},{"type":"Feature","properties":{"site":"02088383","name":"LITTLE RIVER NEAR ZEBULON, NC","huc8":"03020201","startYr":2008,"endYr":2021,"nYears":13,"STREAM_NAM":null,"status":"Moderately Wet","flow":70.6,"julian":81,"date":"Mar-21","flow50":65.36},"geometry":{"type":"Point","coordinates":[-78.3522222,35.8219444]}},{"type":"Feature","properties":{"site":"02088500","name":"LITTLE RIVER NEAR PRINCETON, NC","huc8":"03020201","startYr":1930,"endYr":2021,"nYears":91,"STREAM_NAM":null,"status":"Moderately Wet","flow":401.57,"julian":81,"date":"Mar-21","flow50":266.29},"geometry":{"type":"Point","coordinates":[-78.1602778,35.5113889]}},{"type":"Feature","properties":{"site":"02089000","name":"NEUSE RIVER NEAR GOLDSBORO, NC","huc8":"03020202","startYr":1930,"endYr":2021,"nYears":91,"STREAM_NAM":null,"status":"Extremely Wet","flow":7494.29,"julian":81,"date":"Mar-21","flow50":3207.14},"geometry":{"type":"Point","coordinates":[-77.9975,35.3375]}},{"type":"Feature","properties":{"site":"02089500","name":"NEUSE RIVER AT KINSTON, NC","huc8":"03020202","startYr":1930,"endYr":2021,"nYears":91,"STREAM_NAM":null,"status":"Extremely Wet","flow":9020,"julian":81,"date":"Mar-21","flow50":3685.71},"geometry":{"type":"Point","coordinates":[-77.5855556,35.2577778]}},{"type":"Feature","properties":{"site":"02090380","name":"CONTENTNEA CREEK NEAR LUCAMA, NC","huc8":"03020203","startYr":1964,"endYr":2021,"nYears":57,"STREAM_NAM":null,"status":"Moderately Wet","flow":178.86,"julian":81,"date":"Mar-21","flow50":171.29},"geometry":{"type":"Point","coordinates":[-78.1097222,35.6911111]}},{"type":"Feature","properties":{"site":"02091000","name":"NAHUNTA SWAMP NEAR SHINE, NC","huc8":"03020203","startYr":1954,"endYr":2021,"nYears":67,"STREAM_NAM":null,"status":"Extremely Wet","flow":268,"julian":81,"date":"Mar-21","flow50":88.71},"geometry":{"type":"Point","coordinates":[-77.8061111,35.4888889]}},{"type":"Feature","properties":{"site":"02091500","name":"CONTENTNEA CREEK AT HOOKERTON, NC","huc8":"03020203","startYr":1928,"endYr":2021,"nYears":93,"STREAM_NAM":null,"status":"Very Wet","flow":1613,"julian":81,"date":"Mar-21","flow50":936.57},"geometry":{"type":"Point","coordinates":[-77.5825,35.4288889]}},{"type":"Feature","properties":{"site":"02091814","name":"NEUSE RIVER NEAR FORT BARNWELL, NC","huc8":"03020202","startYr":1996,"endYr":2021,"nYears":25,"STREAM_NAM":null,"status":"Extremely Wet","flow":11861.43,"julian":81,"date":"Mar-21","flow50":4180},"geometry":{"type":"Point","coordinates":[-77.3027778,35.3138889]}},{"type":"Feature","properties":{"site":"02092500","name":"TRENT RIVER NEAR TRENTON, NC","huc8":"03020204","startYr":1951,"endYr":2021,"nYears":70,"STREAM_NAM":null,"status":"Very Wet","flow":373.14,"julian":81,"date":"Mar-21","flow50":190.43},"geometry":{"type":"Point","coordinates":[-77.4613889,35.0641667]}},{"type":"Feature","properties":{"site":"02093800","name":"REEDY FORK NEAR OAK RIDGE, NC","huc8":"03030002","startYr":1955,"endYr":2021,"nYears":66,"STREAM_NAM":"Reedy Fork","status":"Extremely Wet","flow":65.13,"julian":81,"date":"Mar-21","flow50":21.57},"geometry":{"type":"Point","coordinates":[-79.9527778,36.1725]}},{"type":"Feature","properties":{"site":"02093877","name":"BRUSH CREEK AT MUIRFIELD RD AT GREENSBORO, NC","huc8":"03030002","startYr":2004,"endYr":2021,"nYears":17,"STREAM_NAM":"Reedy Fork","status":"Extremely Wet","flow":16.16,"julian":81,"date":"Mar-21","flow50":6.27},"geometry":{"type":"Point","coordinates":[-79.9238889,36.1280556]}},{"type":"Feature","properties":{"site":"0209399200","name":"HORSEPEN CREEK AT US 220 NR GREENSBORO, NC","huc8":"03030002","startYr":1999,"endYr":2021,"nYears":22,"STREAM_NAM":"Reedy Fork","status":"Very Wet","flow":45.4,"julian":81,"date":"Mar-21","flow50":21.77},"geometry":{"type":"Point","coordinates":[-79.86,36.1377778]}},{"type":"Feature","properties":{"site":"02094500","name":"REEDY FORK NEAR GIBSONVILLE, NC","huc8":"03030002","startYr":1928,"endYr":2021,"nYears":93,"STREAM_NAM":null,"status":"Extremely Wet","flow":394.43,"julian":81,"date":"Mar-21","flow50":80.71},"geometry":{"type":"Point","coordinates":[-79.6141667,36.1730556]}},{"type":"Feature","properties":{"site":"02094659","name":"SOUTH BUFFALO CREEK NR POMONA, NC","huc8":"03030002","startYr":1999,"endYr":2021,"nYears":22,"STREAM_NAM":null,"status":"Extremely Wet","flow":31.86,"julian":81,"date":"Mar-21","flow50":10.95},"geometry":{"type":"Point","coordinates":[-79.8552778,36.0494444]}},{"type":"Feature","properties":{"site":"02094770","name":"SOUTH BUFFALO CREEK AT US 220 AT GREENSBORO, NC","huc8":"03030002","startYr":1998,"endYr":2021,"nYears":23,"STREAM_NAM":null,"status":"Extremely Wet","flow":53.71,"julian":81,"date":"Mar-21","flow50":24.69},"geometry":{"type":"Point","coordinates":[-79.7997222,36.0380556]}},{"type":"Feature","properties":{"site":"02094775","name":"RYAN CREEK BELOW US 220 AT GREENSBORO, NC","huc8":"03030002","startYr":1998,"endYr":2021,"nYears":23,"STREAM_NAM":null,"status":"Very Wet","flow":11.9,"julian":81,"date":"Mar-21","flow50":4.79},"geometry":{"type":"Point","coordinates":[-79.7961111,36.0311111]}},{"type":"Feature","properties":{"site":"02095000","name":"SOUTH BUFFALO CR NEAR GREENSBORO, NC","huc8":"03030002","startYr":1928,"endYr":2021,"nYears":93,"STREAM_NAM":null,"status":"Moderately Wet","flow":67.84,"julian":77,"date":"Mar-17","flow50":43.73},"geometry":{"type":"Point","coordinates":[-79.7258333,36.06]}},{"type":"Feature","properties":{"site":"02095181","name":"N BUFFALO CR AT WESTOVER TERRACE AT GREENSBORO, NC","huc8":"03030002","startYr":1999,"endYr":2021,"nYears":22,"STREAM_NAM":null,"status":"Extremely Wet","flow":36.71,"julian":81,"date":"Mar-21","flow50":11.04},"geometry":{"type":"Point","coordinates":[-79.8127778,36.0791667]}},{"type":"Feature","properties":{"site":"02095271","name":"NORTH BUFFALO CREEK AT CHURCH ST AT GREENSBORO, NC","huc8":"03030002","startYr":1998,"endYr":2021,"nYears":23,"STREAM_NAM":null,"status":"Extremely Wet","flow":59.89,"julian":81,"date":"Mar-21","flow50":20.93},"geometry":{"type":"Point","coordinates":[-79.7825,36.0977778]}},{"type":"Feature","properties":{"site":"02095500","name":"NORTH BUFFALO CREEK NEAR GREENSBORO, NC","huc8":"03030002","startYr":1928,"endYr":2021,"nYears":93,"STREAM_NAM":null,"status":"Extremely Wet","flow":148.39,"julian":81,"date":"Mar-21","flow50":60.06},"geometry":{"type":"Point","coordinates":[-79.7080556,36.1205556]}},{"type":"Feature","properties":{"site":"0209553650","name":"BUFFALO CREEK AT SR2819 NR MCLEANSVILLE, NC","huc8":"03030002","startYr":1998,"endYr":2021,"nYears":23,"STREAM_NAM":null,"status":"Extremely Wet","flow":365.57,"julian":81,"date":"Mar-21","flow50":173.89},"geometry":{"type":"Point","coordinates":[-79.6616667,36.1280556]}},{"type":"Feature","properties":{"site":"02096500","name":"HAW RIVER AT HAW RIVER, NC","huc8":"03030002","startYr":1928,"endYr":2021,"nYears":93,"STREAM_NAM":null,"status":"Extremely Wet","flow":1964.57,"julian":81,"date":"Mar-21","flow50":764},"geometry":{"type":"Point","coordinates":[-79.3661111,36.0872222]}},{"type":"Feature","properties":{"site":"02096846","name":"CANE CREEK NEAR ORANGE GROVE, NC","huc8":"03030002","startYr":1988,"endYr":2021,"nYears":33,"STREAM_NAM":"Cane Creek","status":"Moderately Wet","flow":11.29,"julian":81,"date":"Mar-21","flow50":7.77},"geometry":{"type":"Point","coordinates":[-79.2061111,35.9872222]}},{"type":"Feature","properties":{"site":"02096960","name":"HAW RIVER NEAR BYNUM, NC","huc8":"03030002","startYr":1973,"endYr":2021,"nYears":48,"STREAM_NAM":"Haw River (Jordan Lake)","status":"Very Wet","flow":2790.29,"julian":81,"date":"Mar-21","flow50":1483.86},"geometry":{"type":"Point","coordinates":[-79.1358333,35.7652778]}},{"type":"Feature","properties":{"site":"0209722970","name":"SANDY CREEK AT CORNWALLIS RD NEAR DURHAM, NC","huc8":"03030002","startYr":2008,"endYr":2021,"nYears":13,"STREAM_NAM":null,"status":"Moderately Wet","flow":7.41,"julian":81,"date":"Mar-21","flow50":6.86},"geometry":{"type":"Point","coordinates":[-78.9568056,35.9832222]}},{"type":"Feature","properties":{"site":"02097280","name":"THIRD FORK CR AT WOODCROFT PARKWAY NR BLANDS, NC","huc8":"03030002","startYr":2008,"endYr":2021,"nYears":13,"STREAM_NAM":"Haw River (Jordan Lake)","status":"Moderately Wet","flow":21.62,"julian":81,"date":"Mar-21","flow50":20.28},"geometry":{"type":"Point","coordinates":[-78.9524167,35.9226389]}},{"type":"Feature","properties":{"site":"02097314","name":"NEW HOPE CREEK NEAR BLANDS, NC","huc8":"03030002","startYr":1982,"endYr":2021,"nYears":39,"STREAM_NAM":"Haw River (Jordan Lake)","status":"Moderately Wet","flow":132.67,"julian":81,"date":"Mar-21","flow50":132.67},"geometry":{"type":"Point","coordinates":[-78.9652778,35.885]}},{"type":"Feature","properties":{"site":"0209734440","name":"BOLIN CREEK AT VILLAGE DRIVE AT CHAPEL HILL, NC","huc8":"03030002","startYr":2012,"endYr":2021,"nYears":9,"STREAM_NAM":null,"status":"Moderately Wet","flow":7.16,"julian":81,"date":"Mar-21","flow50":7.16},"geometry":{"type":"Point","coordinates":[-79.066,35.9223056]}},{"type":"Feature","properties":{"site":"0209741955","name":"NORTHEAST CREEK AT SR1100 NR GENLEE, NC","huc8":"03030002","startYr":1982,"endYr":2021,"nYears":39,"STREAM_NAM":"Haw River (Jordan Lake)","status":"Moderately Dry","flow":18.89,"julian":81,"date":"Mar-21","flow50":44.54},"geometry":{"type":"Point","coordinates":[-78.9130556,35.8722222]}},{"type":"Feature","properties":{"site":"02097464","name":"MORGAN CREEK NEAR WHITE CROSS, NC","huc8":"03030002","startYr":1988,"endYr":2021,"nYears":33,"STREAM_NAM":"Morgan Creek","status":"Moderately Dry","flow":8.36,"julian":81,"date":"Mar-21","flow50":10.26},"geometry":{"type":"Point","coordinates":[-79.115,35.9236111]}},{"type":"Feature","properties":{"site":"02097517","name":"MORGAN CREEK NEAR CHAPEL HILL, NC","huc8":"03030002","startYr":1982,"endYr":2021,"nYears":39,"STREAM_NAM":"Haw River (Jordan Lake)","status":"Moderately Dry","flow":39.53,"julian":81,"date":"Mar-21","flow50":50.14},"geometry":{"type":"Point","coordinates":[-79.0197222,35.8933333]}},{"type":"Feature","properties":{"site":"0209782609","name":"WHITE OAK CR AT MOUTH NEAR GREEN LEVEL, NC","huc8":"03030002","startYr":1999,"endYr":2021,"nYears":22,"STREAM_NAM":"Haw River (Jordan Lake)","status":"Moderately Dry","flow":11.27,"julian":81,"date":"Mar-21","flow50":14.1},"geometry":{"type":"Point","coordinates":[-78.9202778,35.7602778]}},{"type":"Feature","properties":{"site":"02098206","name":"HAW RIVER NEAR MONCURE, NC","huc8":"03030002","startYr":2011,"endYr":2021,"nYears":10,"STREAM_NAM":"Cape Fear River (Sanford)","status":"Very Wet","flow":4735.71,"julian":75,"date":"Mar-15","flow50":1812.79},"geometry":{"type":"Point","coordinates":[-79.06,35.6322222]}},{"type":"Feature","properties":{"site":"02099000","name":"EAST FORK DEEP RIVER NEAR HIGH POINT, NC","huc8":"03030003","startYr":1928,"endYr":2021,"nYears":93,"STREAM_NAM":"East Fork Deep River (High Point Lake)","status":"Very Wet","flow":50.66,"julian":81,"date":"Mar-21","flow50":20.62},"geometry":{"type":"Point","coordinates":[-79.9455556,36.0372222]}},{"type":"Feature","properties":{"site":"02100500","name":"DEEP RIVER AT RAMSEUR, NC","huc8":"03030003","startYr":1923,"endYr":2021,"nYears":98,"STREAM_NAM":null,"status":"Very Wet","flow":714.71,"julian":81,"date":"Mar-21","flow50":398},"geometry":{"type":"Point","coordinates":[-79.6555556,35.7263889]}},{"type":"Feature","properties":{"site":"0210166029","name":"ROCKY R AT SR1300 NR CRUTCHFIELD CROSSROADS, NC","huc8":"03030003","startYr":1988,"endYr":2021,"nYears":33,"STREAM_NAM":"Rocky River","status":"Very Wet","flow":17.91,"julian":81,"date":"Mar-21","flow50":8.54},"geometry":{"type":"Point","coordinates":[-79.5275,35.8069444]}},{"type":"Feature","properties":{"site":"02101726","name":"ROCKY R AT US 64 NEAR SILER CITY, NC","huc8":"03030003","startYr":2009,"endYr":2021,"nYears":12,"STREAM_NAM":null,"status":"Moderately Wet","flow":84.93,"julian":81,"date":"Mar-21","flow50":42.41},"geometry":{"type":"Point","coordinates":[-79.4230754,35.7351405]}},{"type":"Feature","properties":{"site":"02101800","name":"TICK CREEK NEAR MOUNT VERNON SPRINGS, NC","huc8":"03030003","startYr":1958,"endYr":2021,"nYears":63,"STREAM_NAM":null,"status":"Moderately Dry","flow":12.92,"julian":81,"date":"Mar-21","flow50":13.42},"geometry":{"type":"Point","coordinates":[-79.4016667,35.6597222]}},{"type":"Feature","properties":{"site":"02102000","name":"DEEP RIVER AT MONCURE, NC","huc8":"03030003","startYr":1930,"endYr":2021,"nYears":91,"STREAM_NAM":"Cape Fear River (Sanford)","status":"Moderately Wet","flow":2761.43,"julian":81,"date":"Mar-21","flow50":1845.14},"geometry":{"type":"Point","coordinates":[-79.1161111,35.6269444]}},{"type":"Feature","properties":{"site":"02102192","name":"BUCKHORN CREEK NR CORINTH, NC","huc8":"03030004","startYr":1972,"endYr":2021,"nYears":49,"STREAM_NAM":null,"status":"Moderately Wet","flow":90.51,"julian":81,"date":"Mar-21","flow50":63.29},"geometry":{"type":"Point","coordinates":[-78.9736111,35.5597222]}},{"type":"Feature","properties":{"site":"02102500","name":"CAPE FEAR RIVER AT LILLINGTON, NC","huc8":"03030004","startYr":1924,"endYr":2021,"nYears":97,"STREAM_NAM":"Cape Fear River (Dunn)","status":"Moderately Wet","flow":5327.14,"julian":81,"date":"Mar-21","flow50":4294.29},"geometry":{"type":"Point","coordinates":[-78.8133333,35.4061111]}},{"type":"Feature","properties":{"site":"02102908","name":"FLAT CREEK NEAR INVERNESS, NC","huc8":"03030004","startYr":1968,"endYr":2021,"nYears":53,"STREAM_NAM":"Little River (Intake no. 2)","status":"Extremely Wet","flow":26.53,"julian":81,"date":"Mar-21","flow50":11.81},"geometry":{"type":"Point","coordinates":[-79.1775,35.1827778]}},{"type":"Feature","properties":{"site":"02103000","name":"LITTLE RIVER AT MANCHESTER, NC","huc8":"03030004","startYr":1938,"endYr":2021,"nYears":83,"STREAM_NAM":null,"status":"Extremely Wet","flow":1212.43,"julian":81,"date":"Mar-21","flow50":479.29},"geometry":{"type":"Point","coordinates":[-78.9855556,35.1933333]}},{"type":"Feature","properties":{"site":"02104220","name":"ROCKFISH CREEK AT RAEFORD, NC","huc8":"03030004","startYr":1988,"endYr":2021,"nYears":33,"STREAM_NAM":null,"status":"Extremely Wet","flow":283.14,"julian":81,"date":"Mar-21","flow50":134},"geometry":{"type":"Point","coordinates":[-79.2147222,34.9997222]}}]}