"","id","latitude","longitude","elevation","state","name","gsn_flag","wmo_id","element","first_year","last_year"
"1","US1NCAG0001",36.459,-81.1525,946.1,"NC","SPARTA 3.5 SSW","","","PRCP",2007,2020
"2","US1NCAG0003",36.4843,-80.9996,817.8,"NC","GLADE VALLEY 3.0 ENE","","","PRCP",2011,2020
"3","US1NCAG0005",36.5326,-81.0866,836.7,"NC","SPARTA 2.8 NE","","","PRCP",2014,2020
"4","US1NCAL0014",35.9755,-79.3095,175.9,"NC","HAW RIVER 8.6 SSE","","","PRCP",2011,2020
"5","US1NCAS0002",36.4075,-81.6689,926.6,"NC","CRESTON 2.8 SW","","","PRCP",2007,2020
"6","US1NCAS0010",36.3301,-81.5574,978.7,"NC","TODD 2.6 NE","","","PRCP",2012,2020
"7","US1NCAS0012",36.5628,-81.5824,1052.2,"NC","LANSING 5.9 NW","","","PRCP",2013,2020
"8","US1NCAS0022",36.265,-81.4889,1012.9,"NC","FLEETWOOD 3.1 SSE","","","PRCP",2015,2020
"9","US1NCAV0004",36.085,-81.8461,1316.7,"NC","LINVILLE 2.4 ENE","","","PRCP",2007,2020
"10","US1NCAV0007",35.9544,-81.952,1024.7,"NC","LINVILLE FALLS 0.5 SW","","","PRCP",2008,2020
"11","US1NCAV0010",36.0278,-82.0169,917.1,"NC","PLUMTREE 0.5 W","","","PRCP",2013,2020
"12","US1NCAX0006",35.8868,-81.0744,341.1,"NC","HIDDENITE 1.5 SE","","","PRCP",2012,2020
"13","US1NCBC0001",35.6534,-82.5709,777.2,"NC","ASHEVILLE 5.6 NNW","","","PRCP",2007,2020
"14","US1NCBC0004",35.546,-82.343,813.2,"NC","FAIRVIEW 3.8 ENE","","","PRCP",2006,2020
"15","US1NCBC0005",35.6025,-82.5602,645.6,"NC","ASHEVILLE 2.1 NNW","","","PRCP",2007,2020
"16","US1NCBC0014",35.6263,-82.6763,672.1,"NC","LEICESTER 2 SE","","","PRCP",2008,2020
"17","US1NCBC0015",35.6365,-82.4141,754.1,"NC","SWANNANOA 2.7 NNW","","","PRCP",2008,2020
"18","US1NCBC0021",35.6224,-82.5096,917.1,"NC","ASHEVILLE 4.0 NNE","","","PRCP",2008,2020
"19","US1NCBC0022",35.4862,-82.5353,670.6,"NC","SKYLAND 1.0 W","","","PRCP",2008,2020
"20","US1NCBC0025",35.6152,-82.4348,677,"NC","SWANNANOA 2.6 WNW","","","PRCP",2009,2020
"21","US1NCBC0028",35.55,-82.48,697.1,"NC","ASHEVILLE 4.2 ESE","","","PRCP",2009,2020
"22","US1NCBC0035",35.5058,-82.4051,712,"NC","FAIRVIEW 1.2 S","","","PRCP",2010,2020
"23","US1NCBC0037",35.5362,-82.5135,676,"NC","ASHEVILLE 3.3 SE","","","PRCP",2010,2020
"24","US1NCBC0041",35.4791,-82.4924,694.6,"NC","ARDEN 1.6 ENE","","","PRCP",2010,2020
"25","US1NCBC0043",35.6846,-82.5953,637.9,"NC","ASHEVILLE 8.1 NNW","","","PRCP",2011,2020
"26","US1NCBC0045",35.6162,-82.5505,660.2,"NC","ASHEVILLE 2.9 N","","","PRCP",2011,2020
"27","US1NCBC0051",35.5909,-82.5549,650.4,"NC","ASHEVILLE 1.2 NNW","","","PRCP",2011,2020
"28","US1NCBC0054",35.5954,-82.565,647.4,"NC","ASHEVILLE 1.7 NNW","","","PRCP",2012,2020
"29","US1NCBC0058",35.5793,-82.4808,664.2,"NC","ASHEVILLE 3.8 E","","","PRCP",2012,2020
"30","US1NCBC0064",35.7579,-82.5618,658.1,"NC","WEAVERVILLE 4.2 N","","","PRCP",2012,2020
"31","US1NCBC0066",35.7077,-82.4592,780.9,"NC","WEAVERVILLE 5.6 E","","","PRCP",2012,2020
"32","US1NCBC0073",35.6474,-82.6831,640.1,"NC","LEICESTER 0.9 SE","","","PRCP",2013,2020
"33","US1NCBC0075",35.5812,-82.5924,649.8,"NC","ASHEVILLE 2.5 WNW","","","PRCP",2013,2020
"34","US1NCBC0076",35.5857,-82.3056,968.7,"NC","BLACK MOUNTAIN 2.4 SE","","","PRCP",2013,2020
"35","US1NCBC0078",35.6856,-82.5173,704.1,"NC","WEAVERVILLE 2.4 ESE","","","PRCP",2013,2020
"36","US1NCBC0083",35.4743,-82.5583,632.5,"NC","ARDEN 2.4 WNW","","","PRCP",2014,2020
"37","US1NCBC0085",35.6362,-82.6302,647.7,"NC","ASHEVILLE 6.3 NW","","","PRCP",2014,2020
"38","US1NCBC0087",35.4797,-82.2848,624.2,"NC","BAT CAVE 1.9 N","","","PRCP",2014,2020
"39","US1NCBC0091",35.5546,-82.693,677.9,"NC","CANDLER 1.3 N","","","PRCP",2015,2020
"40","US1NCBC0094",35.6031,-82.4457,681.2,"NC","SWANNANOA 3.0 W","","","PRCP",2015,2020
"41","US1NCBC0095",35.6979,-82.5689,661.7,"NC","WEAVERVILLE 0.6 W","","","PRCP",2015,2020
"42","US1NCBC0099",35.5566,-82.4793,675.4,"NC","ASHEVILLE 4.1 ESE","","","PRCP",2015,2020
"43","US1NCBC0101",35.5471,-82.5309,661.4,"NC","ASHEVILLE 2.1 SSE","","","PRCP",2015,2020
"44","US1NCBC0105",35.6319,-82.3221,791,"NC","BLACK MOUNTAIN 1.3 NNE","","","PRCP",2015,2020
"45","US1NCBC0110",35.589,-82.5428,712.6,"NC","ASHEVILLE 1.1 NNE","","","PRCP",2015,2020
"46","US1NCBC0113",35.4655,-82.4876,685.5,"NC","ARDEN 1.6 E","","","PRCP",2015,2020
"47","US1NCBC0114",35.5272,-82.4066,711.4,"NC","FAIRVIEW 0.3 NNW","","","PRCP",2015,2020
"48","US1NCBC0115",35.5473,-82.2571,723.6,"NC","BLACK MOUNTAIN 5.5 SE","","","PRCP",2015,2020
"49","US1NCBC0126",35.607,-82.3908,682.4,"NC","SWANNANOA 0.4 NNE","","","PRCP",2015,2020
"50","US1NCBD0001",34.5656,-78.8113,39.6,"NC","BLADENBORO 2.0 NNW","","","PRCP",2009,2020
"51","US1NCBD0002",34.6847,-78.6904,46,"NC","ELIZABETHTOWN 6.2 NW","","","PRCP",2009,2020
"52","US1NCBD0015",34.6851,-78.6992,46.3,"NC","ELIZABETHTOWN 6.6 NW","","","PRCP",2014,2020
"53","US1NCBF0010",35.4749,-76.8135,4,"NC","BATH 0.7 N","","","PRCP",1998,2020
"54","US1NCBF0016",35.4265,-76.7072,1.8,"NC","BATH 6.6 ESE","","","PRCP",2014,2020
"55","US1NCBF0020",35.4908,-76.9512,1.8,"NC","WASHINGTON 7.2 SE","","","PRCP",2014,2020
"56","US1NCBF0033",35.4437,-76.8037,1.5,"NC","BATH 1.6 SSE","","","PRCP",1998,2020
"57","US1NCBK0002",35.6887,-81.786,343.8,"NC","GLEN ALPINE 2.8 S","","","PRCP",2007,2020
"58","US1NCBK0004",35.7266,-81.7902,384.7,"NC","GLEN ALPINE 0.7 WSW","","","PRCP",2010,2020
"59","US1NCBK0006",35.7395,-81.569,369.4,"NC","VALDESE 0.8 SW","","","PRCP",2013,2020
"60","US1NCBK0009",35.713,-81.7103,359.1,"NC","MORGANTON 2.1 SSW","","","PRCP",2014,2020
"61","US1NCBK0013",35.952,-81.8918,1107.9,"NC","JONAS RIDGE 1.4 S","","","PRCP",2015,2020
"62","US1NCBR0001",33.9247,-78.5696,13.4,"NC","CALABASH 1.9 NNE","","","PRCP",2007,2020
"63","US1NCBR0002",34.2024,-78.0948,21,"NC","LELAND 5.7 WSW","","","PRCP",2007,2020
"64","US1NCBR0006",33.8841,-78.5377,4.9,"NC","SUNSET BEACH 1.7 WNW","","","PRCP",2008,2020
"65","US1NCBR0007",33.9451,-78.1116,11.9,"NC","LONG BEACH 2.9 NE","","","PRCP",2008,2020
"66","US1NCBR0012",34.1073,-78.0559,10.1,"NC","WINNABOW 3.6 SE","","","PRCP",2011,2020
"67","US1NCBR0013",33.9393,-78.1236,7.6,"NC","SOUTHPORT 5.9 W","","","PRCP",2011,2020
"68","US1NCBR0014",33.9322,-78.008,5.5,"NC","SOUTHPORT 1.0 NE","","","PRCP",2011,2020
"69","US1NCBR0028",33.9132,-78.5879,12.8,"NC","CALABASH 1.2 NNW","","","PRCP",2011,2020
"70","US1NCBR0035",33.9179,-78.1208,6.4,"NC","OAK ISLAND 2.3 E","","","PRCP",2012,2020
"71","US1NCBR0045",33.9854,-78.23,13.1,"NC","BOLIVIA 7.6 SW","","","PRCP",2013,2020
"72","US1NCBR0053",33.9343,-78.0132,5.8,"NC","SOUTHPORT 0.9 NE","","","PRCP",2014,2020
"73","US1NCBR0056",33.9215,-78.1472,6.7,"NC","OAK ISLAND 0.9 ENE","","","PRCP",2014,2020
"74","US1NCBR0061",33.9599,-78.0403,9.1,"NC","SOUTHPORT 2.7 NNW","","","PRCP",2014,2020
"75","US1NCBR0071",33.999,-78.2511,11.6,"NC","BOLIVIA 7.8 SW","","","PRCP",2015,2020
"76","US1NCBR0073",33.9879,-78.2437,9.4,"NC","BOLIVIA 8.0 SW","","","PRCP",2015,2020
"77","US1NCBR0085",33.9251,-78.1234,2.4,"NC","SOUTHPORT 5.8 W","","","PRCP",1998,2020
"78","US1NCBT0006",36.0092,-76.9678,15.2,"NC","WINDSOR 1.5 WNW","","","PRCP",2015,2020
"79","US1NCBT0011",36.0384,-77.0269,15.5,"NC","WINDSOR 5.3 WNW","","","PRCP",1998,2020
"80","US1NCCA0004",36.4436,-76.3289,2.7,"NC","SOUTH MILLS 0.1 SW","","","PRCP",2014,2020
"81","US1NCCB0008",35.3647,-80.655,193.9,"NC","CONCORD 4.5 SW","","","PRCP",2008,2020
"82","US1NCCB0015",35.3955,-80.6059,227.1,"NC","CONCORD 1.0 SW","","","PRCP",2013,2020
"83","US1NCCB0020",35.3983,-80.4347,191.4,"NC","MOUNT PLEASANT 0.3 SSE","","","PRCP",2015,2020
"84","US1NCCB0021",35.2144,-80.5297,159.1,"NC","MIDLAND 1.9 WSW","","","PRCP",2015,2020
"85","US1NCCB0023",35.4135,-80.564,206,"NC","CONCORD 1.8 ENE","","","PRCP",2015,2020
"86","US1NCCC0010",36.0786,-75.7973,2.1,"NC","POINT HARBOR 0.2 WSW","","","PRCP",2015,2020
"87","US1NCCD0011",36.1074,-81.6585,1025,"NC","BLOWING ROCK 1.6 SSE","","","PRCP",2012,2020
"88","US1NCCD0014",36.0546,-81.4843,477.9,"NC","LENOIR 10.6 NNE","","","PRCP",2012,2020
"89","US1NCCH0004",35.6486,-79.3361,173.1,"NC","GOLDSTON 3.8 N","","","PRCP",2007,2020
"90","US1NCCH0006",35.6889,-79.4805,206,"NC","SILER CITY 2.7 SSW","","","PRCP",2008,2020
"91","US1NCCH0015",35.7799,-79.1244,167.3,"NC","PITTSBORO 5.0 NE","","","PRCP",2013,2020
"92","US1NCCH0016",35.7721,-78.9981,89.6,"NC","APEX 9.2 WNW","","","PRCP",2013,2020
"93","US1NCCH0017",35.7915,-79.1074,112.5,"NC","PITTSBORO 6.2 NE","","","PRCP",2013,2020
"94","US1NCCH0018",35.805,-79.1744,143.3,"NC","PITTSBORO 5.9 N","","","PRCP",2013,2020
"95","US1NCCH0020",35.8374,-78.9154,84.1,"NC","CARY 7.5 WNW","","","PRCP",2014,2020
"96","US1NCCH0023",35.6988,-79.2668,131.7,"NC","PITTSBORO 5.4 WSW","","","PRCP",2014,2020
"97","US1NCCH0024",35.6206,-79.2016,100.6,"NC","SANFORD 10.0 N","","","PRCP",2015,2020
"98","US1NCCH0025",35.8416,-78.9177,98.1,"NC","CARY 7.8 WNW","","","PRCP",2015,2020
"99","US1NCCH0026",35.807,-79.3824,199.6,"NC","SILER CITY 7.2 NE","","","PRCP",2015,2020
"100","US1NCCH0029",35.7488,-79.2261,150.9,"NC","PITTSBORO 3.5 NW","","","PRCP",2008,2020
"101","US1NCCK0007",35.1404,-84.2961,502.6,"NC","MURPHY 15.5 WNW","","","PRCP",2010,2020
"102","US1NCCL0003",34.3373,-78.8337,29.9,"NC","CHADBOURN 1.1 NNW","","","PRCP",2013,2020
"103","US1NCCL0021",34.4366,-78.8547,36.6,"NC","EVERGREEN 3.3 NE","","","PRCP",2013,2020
"104","US1NCCL0025",34.3796,-78.7929,30.5,"NC","WHITEVILLE 6.1 NW","","","PRCP",2014,2020
"105","US1NCCL0026",34.1896,-78.8361,31.4,"NC","TABOR CITY 3.5 NE","","","PRCP",2015,2020
"106","US1NCCM0001",35.0367,-78.9068,46.9,"NC","FAYETTEVILLE 2.4 S","","","PRCP",2007,2020
"107","US1NCCM0003",35.0282,-78.9164,53.9,"NC","FAYETTEVILLE 3.2 SSW","","","PRCP",2007,2020
"108","US1NCCM0005",35.0237,-78.9509,47.9,"NC","FAYETTEVILLE 4.4 SW","","","PRCP",2009,2020
"109","US1NCCM0006",34.8806,-78.86,43.6,"NC","HOPE MILLS 8.3 SE","","","PRCP",1998,2020
"110","US1NCCM0008",35.0642,-78.9268,66.1,"NC","FAYETTEVILLE 1.6 WSW","","","PRCP",2009,2020
"111","US1NCCM0010",34.9729,-79.0308,59.1,"NC","FAYETTEVILLE 9.9 SW","","","PRCP",2009,2020
"112","US1NCCM0011",35.0108,-78.9951,55.8,"NC","FAYETTEVILLE 6.9 SW","","","PRCP",2009,2020
"113","US1NCCM0013",34.9274,-78.8894,40.5,"NC","HOPE MILLS 4.8 SE","","","PRCP",2009,2020
"114","US1NCCM0017",35.0158,-78.9792,58.2,"NC","FAYETTEVILLE 5.9 SW","","","PRCP",2009,2020
"115","US1NCCM0021",35.1062,-78.9789,66.1,"NC","FAYETTEVILLE 5.1 WNW","","","PRCP",2009,2020
"116","US1NCCM0034",34.8727,-78.8817,46.3,"NC","HOPE MILLS 8.0 SSE","","","PRCP",2011,2020
"117","US1NCCM0042",34.9101,-78.8744,48.5,"NC","HOPE MILLS 6.3 SE","","","PRCP",2011,2020
"118","US1NCCM0056",35.1942,-78.7436,31.1,"NC","LINDEN 4.2 S","","","PRCP",2013,2020
"119","US1NCCM0058",34.9696,-78.9438,33.2,"NC","HOPE MILLS 0.6 ESE","","","PRCP",2014,2020
"120","US1NCCM0060",34.9921,-78.9337,61.3,"NC","HOPE MILLS 1.7 NE","","","PRCP",2014,2020
"121","US1NCCM0067",35.0397,-78.9322,62.8,"NC","FAYETTEVILLE 2.9 SW","","","PRCP",2015,2020
"122","US1NCCM0068",35.055,-78.913,52.7,"NC","FAYETTEVILLE 1.4 SW","","","PRCP",2015,2020
"123","US1NCCM0071",34.9697,-78.9613,48.8,"NC","HOPE MILLS 0.5 WSW","","","PRCP",2015,2020
"124","US1NCCN0004",35.03,-77.02,14,"NC","JAMES CITY 2.5 S","","","PRCP",2007,2020
"125","US1NCCN0009",35.1387,-77.0739,4.9,"NC","NEW BERN 1.3 NNE","","","PRCP",2008,2020
"126","US1NCCN0018",35.0095,-77.0041,7.9,"NC","JAMES CITY 3.9 SSE","","","PRCP",2011,2020
"127","US1NCCN0020",34.8957,-76.9161,6.4,"NC","HAVELOCK 1.4 SW","","","PRCP",2011,2020
"128","US1NCCN0022",35.1142,-77.1023,8.8,"NC","NEW BERN 1.4 WSW","","","PRCP",2011,2020
"129","US1NCCN0024",35.0103,-76.9974,8.2,"NC","NEW BERN 8.9 SSE","","","PRCP",2011,2020
"130","US1NCCN0030",35.0777,-76.9611,2.4,"NC","NEW BERN 7.3 ESE","","","PRCP",2012,2020
"131","US1NCCN0031",35.141,-77.2324,13.1,"NC","NEW BERN 8.8 W","","","PRCP",2013,2020
"132","US1NCCN0032",34.9926,-76.9706,7.3,"NC","NEUSE FOREST 2.5 NW","","","PRCP",2013,2020
"133","US1NCCN0034",35.0363,-77.0212,6.1,"NC","JAMES CITY 2.0 S","","","PRCP",2013,2020
"134","US1NCCN0042",35.1962,-76.9787,8.8,"NC","NEW BERN 7.7 NE","","","PRCP",2013,2020
"135","US1NCCN0044",35.0747,-77.1536,6.7,"NC","NEW BERN 5.3 SW","","","PRCP",2013,2020
"136","US1NCCN0048",35.0593,-77.083,7,"NC","NEW BERN 4.2 S","","","PRCP",2013,2020
"137","US1NCCN0051",35.08,-77.0893,3.4,"NC","TRENT WOODS 0.4 ENE","","","PRCP",2014,2020
"138","US1NCCN0061",35.0746,-77.1373,2.1,"NC","NEW BERN 4.6 SW","","","PRCP",2014,2020
"139","US1NCCN0063",35.0644,-77.0158,8.2,"NC","NEW BERN 5.2 SE","","","PRCP",2014,2020
"140","US1NCCN0066",35.076,-77.1392,344.1,"NC","RIVER BEND 0.8 ENE","","","PRCP",2014,2020
"141","US1NCCN0067",35.0906,-77.0897,5.2,"NC","TRENT WOODS 1.0 NNE","","","PRCP",2014,2020
"142","US1NCCR0001",34.7857,-76.8633,9.1,"NC","NEWPORT 0.2 SW","","","PRCP",2002,2020
"143","US1NCCR0009",34.7971,-76.6708,2.1,"NC","BEAUFORT 5.3 N","","","PRCP",2007,2020
"144","US1NCCR0012",34.73,-76.74,4,"NC","MOREHEAD CITY 0.6 NW","","","PRCP",2007,2020
"145","US1NCCR0016",34.7302,-76.8314,10.1,"NC","MOREHEAD CITY 6.0 WNW","","","PRCP",2008,2020
"146","US1NCCR0020",34.7315,-76.5176,2.1,"NC","HARKERS ISLAND 3.2 NE","","","PRCP",2007,2020
"147","US1NCCR0028",34.7056,-76.9898,7,"NC","OCEAN 0.5 S","","","PRCP",2010,2020
"148","US1NCCR0029",34.7245,-76.7295,5.5,"NC","MOREHEAD CITY 0.1 E","","","PRCP",2011,2020
"149","US1NCCR0033",34.7829,-76.904,8.5,"NC","NEWPORT 2.5 W","","","PRCP",2012,2020
"150","US1NCCR0040",34.7361,-76.7831,5.8,"NC","MOREHEAD CITY 3.0 WNW","","","PRCP",2011,2020
"151","US1NCCR0043",34.6995,-76.7216,1.5,"NC","ATLANTIC BEACH 1.0 E","","","PRCP",2011,2020
"152","US1NCCR0045",34.7345,-76.7725,4.9,"NC","MOREHEAD CITY 2.4 WNW","","","PRCP",2012,2020
"153","US1NCCR0049",34.6544,-77.0671,5.2,"NC","EMERALD ISLE 2.3 WSW","","","PRCP",2012,2020
"154","US1NCCR0053",34.7646,-76.852,5.8,"NC","NEWPORT 1.7 SSE","","","PRCP",2012,2020
"155","US1NCCR0061",34.742,-76.7459,4.6,"NC","MOREHEAD CITY 1.4 NNW","","","PRCP",2013,2020
"156","US1NCCR0070",34.7425,-76.6599,1.5,"NC","BEAUFORT 1.5 NNW","","","PRCP",2013,2020
"157","US1NCCR0072",34.6858,-76.8949,5.8,"NC","INDIAN BEACH 0.0 W","","","PRCP",2014,2020
"158","US1NCCR0073",34.6985,-76.7939,3.4,"NC","PINE KNOLL SHORES 1.4 E","","","PRCP",2014,2020
"159","US1NCCR0074",34.8024,-76.8642,8.2,"NC","NEWPORT 1.0 N","","","PRCP",2014,2020
"160","US1NCCR0075",34.6982,-76.8149,1.5,"NC","PINE KNOLL SHORES 0.3 NE","","","PRCP",2014,2020
"161","US1NCCR0095",34.7058,-77.0577,9.8,"NC","CAPE CARTERET 0.8 N","","","PRCP",1998,2020
"162","US1NCCS0002",36.251,-79.2382,210,"NC","MEBANE 11.2 N","","","PRCP",2008,2020
"163","US1NCCS0005",36.3793,-79.3691,150,"NC","YANCEYVILLE 2.4 SW","","","PRCP",2012,2020
"164","US1NCCS0007",36.3396,-79.1594,152.4,"NC","LEASBURG 3.8 S","","","PRCP",2003,2020
"165","US1NCCT0005",35.82,-81.1881,298.1,"NC","MILLERSVILLE 2.0 S","","","PRCP",2008,2020
"166","US1NCCT0010",35.6858,-81.4033,296.9,"NC","HICKORY 4.8 SW","","","PRCP",2010,2020
"167","US1NCCT0025",35.7321,-81.177,294.4,"NC","CONOVER 2.8 NE","","","PRCP",2014,2020
"168","US1NCCT0027",35.7871,-81.2516,324.9,"NC","HICKORY 5.3 NE","","","PRCP",1998,2020
"169","US1NCCV0014",35.5022,-81.6235,325.5,"NC","CASAR 0.8 SSW","","","PRCP",2014,2020
"170","US1NCCV0017",35.4272,-81.6503,318.5,"NC","POLKVILLE 0.8 NNW","","","PRCP",2010,2020
"171","US1NCCV0019",35.2688,-81.7305,271.3,"NC","MOORESBORO 2.7 SW","","","PRCP",2015,2020
"172","US1NCCV0023",35.3121,-81.5514,261.2,"NC","SHELBY 1.7 NNW","","","PRCP",2015,2020
"173","US1NCCV0024",35.2134,-81.7083,216.4,"NC","MOORESBORO 6.0 S","","","PRCP",2015,2020
"174","US1NCCV0026",35.3396,-81.533,268.5,"NC","SHELBY 3.5 N","","","PRCP",2015,2020
"175","US1NCCW0015",36.0691,-76.6049,4.3,"NC","EDENTON 0.9 N","","","PRCP",2014,2020
"176","US1NCCW0020",36.0114,-76.5484,2.7,"NC","EDENTON 4.3 SE","","","PRCP",2014,2020
"177","US1NCCW0021",36.0593,-76.6056,2.7,"NC","EDENTON 0.3 NW","","","PRCP",2014,2020
"178","US1NCCW0022",36.0569,-76.6377,2.7,"NC","EDENTON 2.0 W","","","PRCP",2014,2020
"179","US1NCCW0027",36.2768,-76.6225,11.3,"NC","TYNER 3.1 NNW","","","PRCP",1998,2020
"180","US1NCCY0003",35.054,-83.728,714.1,"NC","HAYESVILLE 5.2 E","","","PRCP",2014,2020
"181","US1NCDH0006",35.9914,-78.931,113.1,"NC","DURHAM 1.2 NW","","","PRCP",2007,2020
"182","US1NCDH0022",36.071,-78.9633,117.7,"NC","DURHAM 6.8 NNW","","","PRCP",2002,2020
"183","US1NCDH0024",36.0391,-78.9478,134.7,"NC","DURHAM 4.4 NNW","","","PRCP",2013,2020
"184","US1NCDH0026",36.0482,-78.9757,142.6,"NC","DURHAM 5.8 NW","","","PRCP",2013,2020
"185","US1NCDH0033",35.9035,-79.0062,84.1,"NC","CHAPEL HILL 2.5 SE","","","PRCP",2013,2020
"186","US1NCDH0034",36.0347,-78.9806,154.2,"NC","DURHAM 5.2 NW","","","PRCP",2014,2020
"187","US1NCDH0035",36.1292,-78.8611,126.8,"NC","DURHAM 10.7 NNE","","","PRCP",2014,2020
"188","US1NCDH0036",35.8683,-78.9926,85.6,"NC","CHAPEL HILL 4.9 SSE","","","PRCP",2014,2020
"189","US1NCDP0003",35.1763,-78.1018,48.2,"NC","MOUNT OLIVE 2.4 SW","","","PRCP",2007,2020
"190","US1NCDP0017",34.8259,-78.0286,30.2,"NC","ROSE HILL 0.1 NNW","","","PRCP",2015,2020
"191","US1NCDR0027",36.0385,-75.6713,4.3,"NC","KILL DEVIL HILLS 1.6 N","","","PRCP",2013,2020
"192","US1NCDR0028",35.9178,-75.7044,3,"NC","MANTEO 2.5 WNW","","","PRCP",2010,2020
"193","US1NCDR0036",35.2621,-75.5237,1.2,"NC","BUXTON 1.0 ESE","","","PRCP",2015,2020
"194","US1NCDR0041",35.2633,-75.5912,0.3,"NC","FRISCO 3.3 NE","","","PRCP",2015,2020
"195","US1NCDS0007",35.8408,-80.0933,256.3,"NC","THOMASVILLE 3.5 SSW","","","PRCP",2008,2020
"196","US1NCDS0013",35.96,-80.2988,256.3,"NC","CLEMMONS 6.5 SE","","","PRCP",1998,2020
"197","US1NCDV0001",35.9519,-80.6946,256.6,"NC","SHEFFIELD 1.3 SW","","","PRCP",2005,2020
"198","US1NCDV0002",35.9414,-80.4134,254.5,"NC","ADVANCE 0.2 ESE","","","PRCP",2008,2020
"199","US1NCDV0005",35.8494,-80.4979,220.7,"NC","MOCKSVILLE 4.6 SE","","","PRCP",2012,2020
"200","US1NCDV0006",35.9734,-80.4415,226.8,"NC","ADVANCE 2.9 NW","","","PRCP",1998,2020
"201","US1NCDV0009",35.9957,-80.6642,278.9,"NC","SHEFFIELD 1.9 NE","","","PRCP",2014,2020
"202","US1NCFK0001",36.0599,-78.1607,103.9,"NC","LOUISBURG 8.2 ESE","","","PRCP",2007,2020
"203","US1NCFK0010",36.0192,-78.5355,121.3,"NC","WAKE FOREST 3.5 NNW","","","PRCP",2012,2020
"204","US1NCFK0011",35.9013,-78.3103,88.1,"NC","ZEBULON 5.3 N","","","PRCP",2012,2020
"205","US1NCFK0012",36.0969,-78.3445,103.6,"NC","LOUISBURG 2.5 W","","","PRCP",2013,2020
"206","US1NCFK0018",36.0056,-78.1746,95.4,"NC","SPRING HOPE 5.6 NW","","","PRCP",2014,2020
"207","US1NCFK0020",35.9705,-78.1968,57.6,"NC","LOUISBURG 10.6 SSE","","","PRCP",2015,2020
"208","US1NCFR0004",36.1544,-80.4055,269.4,"NC","LEWISVILLE 4.2 N","","","PRCP",2008,2020
"209","US1NCFR0007",36.0931,-80.4113,280.4,"NC","LEWISVILLE 0.5 W","","","PRCP",2010,2020
"210","US1NCFR0012",36.1446,-80.3243,233.8,"NC","WINSTON-SALEM 4.5 NW","","","PRCP",2011,2020
"211","US1NCFR0022",36.1033,-80.0835,294.7,"NC","KERNERSVILLE 1.1 SSW","","","PRCP",2012,2020
"212","US1NCFR0023",36.0528,-80.3021,245.4,"NC","WINSTON-SALEM 4.1 SSW","","","PRCP",2014,2020
"213","US1NCFR0027",36.1088,-80.3683,253.3,"NC","WINSTON-SALEM 5.9 W","","","PRCP",2015,2020
"214","US1NCFR0034",36.1528,-80.2215,303,"NC","WINSTON-SALEM 4.2 NNE","","","PRCP",1998,2020
"215","US1NCGL0007",36.1404,-80.0004,264.3,"NC","OAK RIDGE 2.3 SSW","","","PRCP",2008,2020
"216","US1NCGL0008",36.1515,-79.7968,242.3,"NC","GREENSBORO 5.3 NNE","","","PRCP",2008,2020
"217","US1NCGL0013",36.2455,-79.7543,252.4,"NC","BROWNS SUMMIT 3.2 NW","","","PRCP",2008,2020
"218","US1NCGL0016",36.2467,-79.7572,238.4,"NC","BROWNS SUMMIT 3.4 NW","","","PRCP",2010,2020
"219","US1NCGL0017",36.082,-79.8432,258.5,"NC","GREENSBORO 0.9 WNW","","","PRCP",2010,2020
"220","US1NCGL0041",35.9761,-79.8367,255.1,"NC","GREENSBORO 7.1 S","","","PRCP",2014,2020
"221","US1NCGL0044",36.0456,-79.7129,214.9,"NC","GREENSBORO 6.8 ESE","","","PRCP",2015,2020
"222","US1NCGL0045",36.1177,-79.7721,242.3,"NC","GREENSBORO 4.1 NE","","","PRCP",2015,2020
"223","US1NCGN0007",35.4954,-77.6604,29.3,"NC","SNOW HILL 3.1 NNE","","","PRCP",2012,2020
"224","US1NCGS0006",35.2539,-81.1201,211.8,"NC","GASTONIA 3.9 ESE","","","PRCP",2008,2020
"225","US1NCGS0008",35.2307,-81.0968,221,"NC","GASTONIA 5.7 SE","","","PRCP",2009,2020
"226","US1NCGS0009",35.249,-81.0335,205.4,"NC","BELMONT 0.4 E","","","PRCP",2009,2020
"227","US1NCGS0021",35.2282,-81.1598,226.2,"NC","GASTONIA 1.8 SSE","","","PRCP",2012,2020
"228","US1NCGS0033",35.2013,-81.1373,227.7,"NC","GASTONIA 4.0 SSE","","","PRCP",2014,2020
"229","US1NCGS0037",35.2886,-81.3309,284.4,"NC","KINGS MOUNTAIN 3.4 NNE","","","PRCP",2014,2020
"230","US1NCGS0044",35.247,-81.096,200.9,"NC","GASTONIA 4.3 E","","","PRCP",2014,2020
"231","US1NCGS0053",35.2428,-81.1977,244.4,"NC","GASTONIA 1.6 WSW","","","PRCP",2014,2020
"232","US1NCGV0007",36.2045,-78.58,94.8,"NC","OXFORD 7.4 S","","","PRCP",2013,2020
"233","US1NCGV0010",36.2965,-78.6299,156.1,"NC","OXFORD 2.5 WSW","","","PRCP",2014,2020
"234","US1NCHK0003",34.9592,-79.0558,63.1,"NC","RAEFORD 9.6 E","","","PRCP",2009,2020
"235","US1NCHK0004",34.9944,-79.0557,64.9,"NC","FAYETTEVILLE 10.8 WSW","","","PRCP",2010,2020
"236","US1NCHK0005",35.0184,-79.1633,81.1,"NC","RAEFORD 4.4 NE","","","PRCP",2010,2020
"237","US1NCHK0010",34.9466,-79.0807,58.8,"NC","LUMBER BRIDGE 4.0 N","","","PRCP",2015,2020
"238","US1NCHL0001",36.473,-77.729,40.8,"NC","ROANOKE RAPIDS 4.5 WNW","","","PRCP",2007,2020
"239","US1NCHN0002",35.4308,-82.5242,645,"NC","FLETCHER 1.2 WSW","","","PRCP",2007,2020
"240","US1NCHN0004",35.2817,-82.4564,737,"NC","EAST FLAT ROCK 2.1 W","","","PRCP",2007,2020
"241","US1NCHN0012",35.291,-82.4143,647.7,"NC","EAST FLAT ROCK 0.5 NNE","","","PRCP",2008,2020
"242","US1NCHN0014",35.28,-82.5309,695.6,"NC","HENDERSONVILLE 4.8 SW","","","PRCP",2009,2020
"243","US1NCHN0015",35.3857,-82.3103,845.5,"NC","HENDERSONVILLE 9.6 ENE","","","PRCP",2009,2020
"244","US1NCHN0016",35.3578,-82.5039,671.2,"NC","HENDERSONVILLE 3.4 NW","","","PRCP",2010,2020
"245","US1NCHN0019",35.4412,-82.4596,670.9,"NC","FLETCHER 2.5 E","","","PRCP",2009,2020
"246","US1NCHN0025",35.2409,-82.5044,694.3,"NC","HENDERSONVILLE 6.1 SSW","","","PRCP",2012,2020
"247","US1NCHN0027",35.3915,-82.444,698.6,"NC","HENDERSONVILLE 4.9 NNE","","","PRCP",2013,2020
"248","US1NCHN0028",35.2883,-82.4828,654.1,"NC","HENDERSONVILLE 2.6 SSW","","","PRCP",2013,2020
"249","US1NCHN0029",35.2526,-82.4247,753.2,"NC","FLAT ROCK 1.6 SE","","","PRCP",2013,2020
"250","US1NCHN0030",35.3084,-82.5274,823,"NC","LAUREL PARK 1.5 W","","","PRCP",2014,2020
"251","US1NCHN0032",35.2904,-82.4431,647.1,"NC","HENDERSONVILLE 2.4 SSE","","","PRCP",2014,2020
"252","US1NCHN0033",35.2881,-82.5421,665.7,"NC","HENDERSONVILLE 5.1 WSW","","","PRCP",2014,2020
"253","US1NCHN0038",35.3217,-82.6126,675.7,"NC","ETOWAH 1.1 WNW","","","PRCP",2015,2020
"254","US1NCHR0002",35.4049,-78.681,75.9,"NC","COATS 0.7 W","","","PRCP",2007,2020
"255","US1NCHR0007",35.4028,-78.8508,103.9,"NC","LILLINGTON 2.0 W","","","PRCP",2009,2020
"256","US1NCHR0017",35.3287,-79.1163,84.7,"NC","CAMERON 7.6 E","","","PRCP",2011,2020
"257","US1NCHR0021",35.5014,-78.8745,104.9,"NC","FUQUAY-VARINA 7.6 SW","","","PRCP",2013,2020
"258","US1NCHR0026",35.5041,-78.817,105.2,"NC","FUQUAY-VARINA 6.1 SSW","","","PRCP",2013,2020
"259","US1NCHW0002",35.5389,-83.0467,1051.6,"NC","MAGGIE VALLEY 2.9 ENE","","","PRCP",2007,2020
"260","US1NCHW0004",35.4884,-82.9868,816.9,"NC","WAYNESVILLE 0.7 ENE","","","PRCP",2007,2020
"261","US1NCHW0009",35.4666,-83.0313,867.5,"NC","WAYNESVILLE 2.3 WSW","","","PRCP",2007,2020
"262","US1NCHW0016",35.5261,-82.9073,779.7,"NC","CLYDE 0.6 SSE","","","PRCP",1998,2020
"263","US1NCHW0017",35.5678,-82.8394,847.6,"NC","CANTON 1.5 N","","","PRCP",1998,2020
"264","US1NCHW0025",35.4932,-83.0127,926.6,"NC","WAYNESVILLE 1.0 NW","","","PRCP",2009,2020
"265","US1NCHW0030",35.4585,-82.9738,1126.8,"NC","WAYNESVILLE 2.2 SE","","","PRCP",2010,2020
"266","US1NCHW0035",35.5583,-83.0344,827.8,"NC","WAYNESVILLE 5.5 NNW","","","PRCP",2012,2020
"267","US1NCHW0039",35.5317,-83.0595,1092.4,"NC","MAGGIE VALLEY 2.1 ENE","","","PRCP",2014,2020
"268","US1NCHW0048",35.5374,-83.0303,824.8,"NC","WAYNESVILLE 4.1 NNW","","","PRCP",2014,2020
"269","US1NCIR0001",35.5531,-80.801,251.2,"NC","MOORESVILLE 1.9 SSE","","","PRCP",2007,2020
"270","US1NCIR0002",35.926,-80.8188,260.9,"NC","HARMONY 3.4 SW","","","PRCP",2008,2020
"271","US1NCIR0005",35.7953,-80.8347,258.5,"NC","STATESVILLE 2.9 ENE","","","PRCP",2008,2020
"272","US1NCIR0008",35.8052,-80.8179,281,"NC","STATESVILLE 4.0 ENE","","","PRCP",2011,2020
"273","US1NCIR0017",35.9894,-80.7689,283.5,"NC","HARMONY 2.2 N","","","PRCP",2014,2020
"274","US1NCIR0019",35.7494,-80.9926,289,"NC","STATESVILLE 6.5 WSW","","","PRCP",2015,2020
"275","US1NCIR0021",35.5687,-80.8322,249.3,"NC","MOORESVILLE 1.3 WSW","","","PRCP",2015,2020
"276","US1NCJC0010",35.2766,-83.0494,1176.5,"NC","TUCKASEGEE 4.2 E","","","PRCP",2002,2020
"277","US1NCJH0007",35.5724,-78.4154,64,"NC","CLAYTON 5.7 SSE","","","PRCP",2007,2020
"278","US1NCJH0014",35.6317,-78.4702,91.1,"NC","CLAYTON 1.3 SSW","","","PRCP",2007,2020
"279","US1NCJH0015",35.6892,-78.3482,83.8,"NC","WENDELL 6.5 S","","","PRCP",2007,2020
"280","US1NCJH0020",35.6169,-78.3846,93,"NC","CLAYTON 4.6 ESE","","","PRCP",2007,2020
"281","US1NCJH0022",35.7218,-78.2583,83.2,"NC","MIDDLESEX 5.5 SSW","","","PRCP",2008,2020
"282","US1NCJH0023",35.5728,-78.5454,80.5,"NC","GARNER 9.6 SSE","","","PRCP",2008,2020
"283","US1NCJH0024",35.6244,-78.4578,71.9,"NC","CLAYTON 1.6 S","","","PRCP",2008,2020
"284","US1NCJH0026",35.6343,-78.2546,64.6,"NC","SELMA 7.0 NNE","","","PRCP",2008,2020
"285","US1NCJH0046",35.6194,-78.3411,51.2,"NC","CLAYTON 6.8 ESE","","","PRCP",2013,2020
"286","US1NCJH0057",35.5839,-78.5171,70.4,"NC","GARNER 9.8 SE","","","PRCP",2014,2020
"287","US1NCJH0063",35.6726,-78.4097,81.1,"NC","CLAYTON 3.3 ENE","","","PRCP",2014,2020
"288","US1NCJH0065",35.5107,-78.4901,58.5,"NC","FOUR OAKS 5.7 NW","","","PRCP",2014,2020
"289","US1NCJN0001",35.0716,-77.1283,4.9,"NC","NEW BERN 4.4 SW","","","PRCP",2010,2020
"290","US1NCLE0003",35.3831,-79.1632,121,"NC","SANFORD 6.6 S","","","PRCP",2011,2020
"291","US1NCLE0009",35.5631,-79.195,97.5,"NC","SANFORD 6.0 N","","","PRCP",2014,2020
"292","US1NCLN0001",35.4422,-81.2418,279.5,"NC","LINCOLNTON 2.3 S","","","PRCP",2007,2020
"293","US1NCLN0004",35.4606,-81.3296,270.4,"NC","LINCOLNTON 4.4 WSW","","","PRCP",2007,2020
"294","US1NCLN0010",35.5391,-81.4717,335,"NC","VALE 4.2 W","","","PRCP",2014,2020
"295","US1NCLR0004",35.3004,-77.6478,36.9,"NC","KINSTON 3.7 WNW","","","PRCP",2011,2020
"296","US1NCLR0007",35.246,-77.5156,10.7,"NC","KINSTON 4.7 ESE","","","PRCP",2011,2020
"297","US1NCLR0010",35.3007,-77.6762,30.8,"NC","KINSTON 5.1 WNW","","","PRCP",2012,2020
"298","US1NCLR0022",35.1919,-77.6598,24.1,"NC","KINSTON 7.0 SW","","","PRCP",2014,2020
"299","US1NCLR0023",35.289,-77.6665,31.7,"NC","KINSTON 4.4 WNW","","","PRCP",2014,2020
"300","US1NCLR0026",35.2923,-77.6017,24.7,"NC","KINSTON 1.3 NNW","","","PRCP",2015,2020
"301","US1NCMC0001",35.1817,-83.384,645.9,"NC","FRANKLIN 0.1 WNW","","","PRCP",2007,2020
"302","US1NCMC0004",35.247,-83.414,602.6,"NC","FRANKLIN 4.9 NNW","","","PRCP",2001,2020
"303","US1NCMC0012",35.1614,-83.3078,645,"NC","FRANKLIN 4.4 ESE","","","PRCP",2009,2020
"304","US1NCMD0008",35.6753,-82.213,585.8,"NC","OLD FORT 3.6 NW","","","PRCP",1998,2020
"305","US1NCMD0009",35.6891,-82.0742,409.7,"NC","PLEASANT GARDENS 0.8 WSW","","","PRCP",2012,2020
"306","US1NCMD0010",35.6322,-82.18,469.7,"NC","OLD FORT 0.2 W","","","PRCP",2013,2020
"307","US1NCMG0001",35.4146,-79.7846,203.9,"NC","STAR 1.0 N","","","PRCP",2007,2020
"308","US1NCMK0015",35.3302,-80.96,222.2,"NC","MOUNT HOLLY 4.4 ENE","","","PRCP",2008,2020
"309","US1NCMK0034",35.3073,-80.9469,205.7,"NC","MOUNT HOLLY 4.8 E","","","PRCP",2013,2020
"310","US1NCMK0037",35.4993,-80.8601,218.5,"NC","DAVIDSON 0.8 W","","","PRCP",2013,2020
"311","US1NCMK0039",35.3867,-80.7961,232.6,"NC","HUNTERSVILLE 3.4 SE","","","PRCP",2013,2020
"312","US1NCMK0050",35.1328,-80.7684,189.3,"NC","CHARLOTTE 5.8 SE","","","PRCP",1998,2020
"313","US1NCMK0053",35.2365,-80.7197,227.1,"NC","CHARLOTTE 7.0 ENE","","","PRCP",2015,2020
"314","US1NCMK0064",35.1027,-80.7156,200.6,"NC","MATTHEWS 1.3 S","","","PRCP",2015,2020
"315","US1NCMK0068",35.4177,-80.8801,228,"NC","HUNTERSVILLE 2.0 W","","","PRCP",2015,2020
"316","US1NCMK0070",35.3813,-80.8723,241.7,"NC","HUNTERSVILLE 2.8 SSW","","","PRCP",2015,2020
"317","US1NCMK0071",35.19,-80.7317,226.2,"NC","CHARLOTTE 5.8 E","","","PRCP",2015,2020
"318","US1NCML0001",36.092,-82.175,1168,"NC","BAKERSVILLE 5.4 N","","","PRCP",2007,2020
"319","US1NCML0002",35.989,-82.128,893.1,"NC","BAKERSVILLE 2.5 SE","","","PRCP",2007,2020
"320","US1NCML0010",35.8379,-82.1375,1027.8,"NC","SPRUCE PINE 6.6 SW","","","PRCP",2013,2020
"321","US1NCML0011",35.889,-82.0125,833.9,"NC","SPRUCE PINE 3.7 ESE","","","PRCP",2013,2020
"322","US1NCML0014",35.9006,-82.1477,782.4,"NC","SPRUCE PINE 4.5 WSW","","","PRCP",2015,2020
"323","US1NCMR0009",35.2795,-79.3567,120.7,"NC","WHISPERING PINES 2.1 NE","","","PRCP",2009,2020
"324","US1NCMR0012",35.2451,-79.3933,116.4,"NC","WHISPERING PINES 1.0 SW","","","PRCP",2011,2020
"325","US1NCMR0018",35.254,-79.3497,98.5,"NC","WHISPERING PINES 1.7 E","","","PRCP",2013,2020
"326","US1NCMS0005",35.9821,-82.7672,635.5,"NC","MARSHALL 13.6 NNW","","","PRCP",2008,2020
"327","US1NCMS0007",35.7834,-82.8947,975.4,"NC","HOT SPRINGS 8.4 SSW","","","PRCP",2009,2020
"328","US1NCMS0009",35.8116,-82.853,638.3,"NC","HOT SPRINGS 5.7 SSW","","","PRCP",2012,2020
"329","US1NCMS0012",35.7564,-82.753,678.2,"NC","MARSHALL 4.8 SW","","","PRCP",2013,2020
"330","US1NCMS0016",35.8015,-82.5305,618.1,"NC","MARS HILL 2.2 SSE","","","PRCP",2015,2020
"331","US1NCMS0017",35.7996,-82.5453,646.8,"NC","MARS HILL 2.0 S","","","PRCP",2015,2020
"332","US1NCMS0018",35.6955,-82.7991,759.3,"NC","LEICESTER 6.5 WNW","","","PRCP",1998,2020
"333","US1NCMS0019",36.0084,-82.6182,946.4,"NC","MARSHALL 15.1 NNE","","","PRCP",2015,2020
"334","US1NCMS0020",35.7701,-82.8129,873.9,"NC","MARSHALL 7.5 WSW","","","PRCP",2015,2020
"335","US1NCMT0006",35.8386,-77.062,22.3,"NC","WILLIAMSTON 0.9 SSW","","","PRCP",2011,2020
"336","US1NCMT0007",35.7426,-76.9673,12.5,"NC","JAMESVILLE 6.1 SW","","","PRCP",2011,2020
"337","US1NCMT0010",35.8254,-77.2533,21.9,"NC","ROBERSONVILLE 0.0 NNW","","","PRCP",2013,2020
"338","US1NCNH0007",34.1527,-77.8842,7.9,"NC","WILMINGTON 4.4 SSE","","","PRCP",2010,2020
"339","US1NCNH0010",34.25,-77.8087,6.4,"NC","WILMINGTON 8.0 ENE","","","PRCP",2011,2020
"340","US1NCNH0016",34.1747,-77.8561,7.6,"NC","WILMINGTON 4.1 SE","","","PRCP",2011,2020
"341","US1NCNH0035",34.1865,-77.8851,11.6,"NC","WILMINGTON 2.3 SE","","","PRCP",2012,2020
"342","US1NCNH0046",34.1295,-77.8685,1.5,"NC","WILMINGTON 6.2 SSE","","","PRCP",2013,2020
"343","US1NCNR0002",36.4362,-77.236,32.9,"NC","CONWAY 0.3 W","","","PRCP",2007,2020
"344","US1NCNR0006",36.5264,-77.8276,66.8,"NC","HENRICO 0.4 S","","","PRCP",2011,2020
"345","US1NCNS0002",35.9713,-78.0134,68.3,"NC","NASHVILLE 3.2 W","","","PRCP",2008,2020
"346","US1NCNS0010",35.8957,-77.8823,40.8,"NC","ROCKY MOUNT 5.9 SW","","","PRCP",1998,2020
"347","US1NCNS0016",35.7972,-78.2269,95.7,"NC","ZEBULON 5.5 ESE","","","PRCP",2012,2020
"348","US1NCNS0021",35.8532,-77.9128,44.8,"NC","ROCKY MOUNT 9.2 SW","","","PRCP",2013,2020
"349","US1NCON0004",34.7264,-77.1672,6.1,"NC","SWANSBORO 3.3 NW","","","PRCP",2007,2020
"350","US1NCON0019",34.7738,-77.4185,6.7,"NC","JACKSONVILLE 1.0 NW","","","PRCP",2011,2020
"351","US1NCON0020",34.6681,-77.1785,9.1,"NC","HUBERT 4.9 SE","","","PRCP",2011,2020
"352","US1NCON0034",34.9304,-77.5802,19.5,"NC","RICHLANDS 2.8 NW","","","PRCP",2011,2020
"353","US1NCON0045",34.524,-77.3708,0.3,"NC","SNEADS FERRY 2.1 SSE","","","PRCP",2012,2020
"354","US1NCON0058",34.7749,-77.3873,11.6,"NC","JACKSONVILLE 1.2 NE","","","PRCP",2013,2020
"355","US1NCON0068",34.8455,-77.4725,11,"NC","JACKSONVILLE 6.8 NW","","","PRCP",2014,2020
"356","US1NCON0070",34.7578,-77.6546,21.3,"NC","GURGANUS 0.5 N","","","PRCP",2014,2020
"357","US1NCOR0001",36.0164,-79.1281,226.2,"NC","HILLSBOROUGH 4.0 SSW","","","PRCP",2007,2020
"358","US1NCOR0002",36.1383,-79.1806,210.9,"NC","EFLAND 4.0 NNW","","","PRCP",2007,2020
"359","US1NCOR0006",36.1515,-79.1908,202.4,"NC","HILLSBOROUGH 7.4 NW","","","PRCP",2007,2020
"360","US1NCOR0021",35.9023,-79.1147,129.2,"NC","CHAPEL HILL 4.5 WSW","","","PRCP",2011,2020
"361","US1NCOR0027",36.0451,-79.1015,182.9,"NC","HILLSBOROUGH 1.8 S","","","PRCP",2013,2020
"362","US1NCOR0038",35.9113,-79.1144,148.4,"NC","CHAPEL HILL 4.3 WSW","","","PRCP",2014,2020
"363","US1NCOR0039",36.0359,-79.0246,156.4,"NC","DURHAM 7.2 WNW","","","PRCP",2015,2020
"364","US1NCOR0041",36.085,-79.0815,176.8,"NC","HILLSBOROUGH 1.5 NE","","","PRCP",2015,2020
"365","US1NCPD0002",34.3756,-77.6176,2.1,"NC","TOPSAIL BEACH 0.9 E","","","PRCP",2007,2020
"366","US1NCPD0013",34.3768,-77.9144,4.3,"NC","CASTLE HAYNE 1.6 NNW","","","PRCP",2011,2020
"367","US1NCPD0017",34.3708,-77.7139,15.5,"NC","HAMPSTEAD 0.3 NW","","","PRCP",2012,2020
"368","US1NCPD0022",34.554,-77.9229,12.2,"NC","BURGAW 0.3 NE","","","PRCP",1998,2020
"369","US1NCPK0001",35.2512,-82.1715,315.5,"NC","COLUMBUS 1.9 E","","","PRCP",2007,2020
"370","US1NCPK0002",35.3287,-82.2636,319.4,"NC","COLUMBUS 6.6 NNW","","","PRCP",2007,2020
"371","US1NCPK0005",35.1968,-82.2029,342.3,"NC","TRYON 2.2 ESE","","","PRCP",2007,2020
"372","US1NCPK0006",35.2454,-82.3493,646.8,"NC","SALUDA 0.5 N","","","PRCP",2008,2020
"373","US1NCPK0008",35.2276,-81.9767,285.6,"NC","RUTHERFORDTON 9.5 S","","","PRCP",2008,2020
"374","US1NCPK0025",35.2247,-82.1908,338,"NC","COLUMBUS 1.7 SSE","","","PRCP",2013,2020
"375","US1NCPM0003",35.0924,-76.7401,2.7,"NC","MERRITT 1.5 WSW","","","PRCP",2009,2020
"376","US1NCPM0010",35.0905,-76.7202,2.4,"NC","ORIENTAL 4.3 NNW","","","PRCP",2011,2020
"377","US1NCPM0012",35.0929,-76.6264,1.2,"NC","ORIENTAL 5.2 NE","","","PRCP",2012,2020
"378","US1NCPM0020",35.0803,-76.8809,7,"NC","GRANTSBORO 4.6 SSW","","","PRCP",2014,2020
"379","US1NCPM0021",35.2969,-76.5613,0.6,"NC","LOWLAND 0.2 SE","","","PRCP",2014,2020
"380","US1NCPN0003",36.3583,-78.9173,189,"NC","ROXBORO 4.6 SE","","","PRCP",2008,2020
"381","US1NCPN0011",36.3553,-78.8314,196.6,"NC","TIMBERLAKE 8.1 NE","","","PRCP",2014,2020
"382","US1NCPR0005",36.1158,-76.4339,3,"NC","HERTFORD 5.2 SSE","","","PRCP",2013,2020
"383","US1NCPR0006",36.0867,-76.4033,2.1,"NC","HERTFORD 7.8 SSE","","","PRCP",2013,2020
"384","US1NCPR0010",36.095,-76.4178,2.4,"NC","HERTFORD 6.9 SSE","","","PRCP",2014,2020
"385","US1NCPR0012",36.0886,-76.4032,2.1,"NC","HERTFORD 7.7 SSE","","","PRCP",2015,2020
"386","US1NCPS0001",36.3015,-76.2668,3.4,"NC","ELIZABETH CITY 2.6 W","","","PRCP",2011,2020
"387","US1NCPS0022",36.3399,-76.2511,2.4,"NC","ELIZABETH CITY 3.5 NNW","","","PRCP",2015,2020
"388","US1NCPT0005",35.5029,-77.3286,18,"NC","WINTERVILLE 4.3 ESE","","","PRCP",2008,2020
"389","US1NCPT0007",35.5258,-77.4605,25.9,"NC","WINTERVILLE 3.5 W","","","PRCP",2008,2020
"390","US1NCPT0008",35.5857,-77.3553,20.7,"NC","GREENVILLE 1.4 SE","","","PRCP",2008,2020
"391","US1NCPT0010",35.6746,-77.6377,33.8,"NC","FOUNTAIN 0.1 NE","","","PRCP",2009,2020
"392","US1NCPT0017",35.6024,-77.4557,25.3,"NC","GREENVILLE 4.6 W","","","PRCP",2011,2020
"393","US1NCPT0018",35.5072,-77.3214,18,"NC","GREENVILLE 7.1 SSE","","","PRCP",2011,2020
"394","US1NCPT0019",35.5395,-77.3466,19.5,"NC","GREENVILLE 4.4 SSE","","","PRCP",2012,2020
"395","US1NCPT0021",35.5408,-77.35,19.2,"NC","GREENVILLE 4.3 SSE","","","PRCP",2012,2020
"396","US1NCPT0023",35.5602,-77.4196,22.3,"NC","WINTERVILLE 2.5 NNW","","","PRCP",2012,2020
"397","US1NCPT0035",35.5895,-77.3261,14,"NC","GREENVILLE 2.8 ESE","","","PRCP",2012,2020
"398","US1NCPT0037",35.4185,-77.4318,18.9,"NC","AYDEN 3.7 S","","","PRCP",2012,2020
"399","US1NCPT0040",35.5784,-77.3499,21,"NC","GREENVILLE 2.0 SE","","","PRCP",2001,2020
"400","US1NCPT0047",35.6291,-77.6282,26.2,"NC","FARMVILLE 3.1 NW","","","PRCP",2013,2020
"401","US1NCPT0055",35.5343,-77.3819,26.8,"NC","WINTERVILLE 1.0 ENE","","","PRCP",2014,2020
"402","US1NCPT0057",35.6519,-77.4537,16.2,"NC","GREENVILLE 5.7 NW","","","PRCP",2014,2020
"403","US1NCPT0062",35.581,-77.4183,22.6,"NC","GREENVILLE 2.8 WSW","","","PRCP",2014,2020
"404","US1NCPT0063",35.5505,-77.4393,21.9,"NC","WINTERVILLE 2.8 WNW","","","PRCP",2014,2020
"405","US1NCPT0067",35.5905,-77.4322,22.9,"NC","GREENVILLE 3.3 W","","","PRCP",2015,2020
"406","US1NCPT0073",35.6361,-77.4446,24.4,"NC","GREENVILLE 4.7 WNW","","","PRCP",2015,2020
"407","US1NCRB0007",34.6207,-78.9719,44.5,"NC","LUMBERTON 2.6 ESE","","","PRCP",2011,2020
"408","US1NCRB0009",34.659,-78.9903,41.1,"NC","LUMBERTON 2.3 NE","","","PRCP",2012,2020
"409","US1NCRC0001",34.9616,-79.6083,116.1,"NC","MARSTON 2.3 SW","","","PRCP",2008,2020
"410","US1NCRC0008",35.1643,-79.7195,178.6,"NC","NORMAN 0.4 SSE","","","PRCP",2012,2020
"411","US1NCRG0012",36.5166,-79.7035,176.5,"NC","EDEN 2.3 ENE","","","PRCP",2014,2020
"412","US1NCRN0013",35.5645,-79.7777,223.7,"NC","ASHEBORO 10.9 S","","","PRCP",2011,2020
"413","US1NCRN0014",35.7472,-79.6862,164.9,"NC","FRANKLINVILLE 0.3 ENE","","","PRCP",2011,2020
"414","US1NCRN0022",35.7396,-79.6771,145.4,"NC","RAMSEUR 1.5 WNW","","","PRCP",2015,2020
"415","US1NCRN0024",35.7565,-79.8,212.4,"NC","ASHEBORO 2.6 NNE","","","PRCP",2015,2020
"416","US1NCRT0003",35.2926,-81.7913,274.9,"NC","ELLENBORO 3.1 SW","","","PRCP",2008,2020
"417","US1NCRT0006",35.4418,-82.2543,366.7,"NC","CHIMNEY ROCK 0.3 E","","","PRCP",2009,2020
"418","US1NCRT0008",35.5013,-81.9207,317.9,"NC","UNION MILLS 2.6 ENE","","","PRCP",2012,2020
"419","US1NCRT0010",35.3528,-82.0052,310.6,"NC","RUTHERFORDTON 2.6 WSW","","","PRCP",2015,2020
"420","US1NCRW0002",35.5634,-80.6582,263.3,"NC","CHINA GROVE 4.4 W","","","PRCP",1998,2020
"421","US1NCRW0015",35.728,-80.4352,211.5,"NC","SPENCER 2.3 N","","","PRCP",2015,2020
"422","US1NCRW0016",35.5895,-80.4655,254.8,"NC","FAITH 0.3 WNW","","","PRCP",2015,2020
"423","US1NCRW0017",35.6961,-80.5322,233.8,"NC","SALISBURY 3.4 NW","","","PRCP",2015,2020
"424","US1NCSC0002",34.6913,-79.5162,50,"NC","LAURINBURG 5.7 SSW","","","PRCP",1998,2020
"425","US1NCSK0002",36.4651,-80.2566,323.4,"NC","DANBURY 4.6 NNW","","","PRCP",2012,2020
"426","US1NCSK0005",36.3027,-80.1398,215.8,"NC","WALNUT COVE 0.5 N","","","PRCP",2013,2020
"427","US1NCSM0001",34.9412,-78.4058,43.9,"NC","CLINTON 5.8 SW","","","PRCP",2009,2020
"428","US1NCSM0002",35.215,-78.5702,61.9,"NC","DUNN 7.1 SSE","","","PRCP",1998,2020
"429","US1NCSM0007",35.2471,-78.5688,57.3,"NC","DUNN 5.2 SSE","","","PRCP",2012,2020
"430","US1NCSM0008",35.0172,-78.3142,47.2,"NC","CLINTON 1.5 NE","","","PRCP",2012,2020
"431","US1NCSM0011",34.7238,-78.1905,23.8,"NC","HARRELLS 0.7 SE","","","PRCP",2013,2020
"432","US1NCSM0013",34.942,-78.5349,39.9,"NC","ROSEBORO 1.5 WSW","","","PRCP",2014,2020
"433","US1NCSN0002",35.1755,-80.3967,152.4,"NC","STANFIELD 4.5 SSE","","","PRCP",2007,2020
"434","US1NCSN0006",35.4683,-80.2578,199,"NC","RICHFIELD 0.2 SSW","","","PRCP",2012,2020
"435","US1NCSR0002",36.3669,-80.6927,348.7,"NC","DOBSON 2.3 SE","","","PRCP",2008,2020
"436","US1NCSR0004",36.4941,-80.6896,389.5,"NC","MOUNT AIRY 4.3 W","","","PRCP",2008,2020
"437","US1NCSR0006",36.346,-80.603,358.4,"NC","ARARAT 4.7 SW","","","PRCP",2009,2020
"438","US1NCSW0006",35.3183,-83.5645,768.1,"NC","WESSER 1.7 SE","","","PRCP",2015,2020
"439","US1NCTR0001",35.2551,-82.7351,771.1,"NC","BREVARD 1.2 NNW","","","PRCP",2007,2020
"440","US1NCTR0005",35.2292,-82.6358,642.5,"NC","BREVARD 5.4 E","","","PRCP",2007,2020
"441","US1NCTR0008",35.2466,-82.7262,653.5,"NC","BREVARD 0.7 NNE","","","PRCP",1998,2020
"442","US1NCTR0016",35.2293,-82.725,656.2,"NC","BREVARD 0.6 SSE","","","PRCP",1998,2020
"443","US1NCTR0021",35.2311,-82.7218,653.8,"NC","BREVARD 0.7 SE","","","PRCP",2013,2020
"444","US1NCTR0023",35.2911,-82.6952,770.5,"NC","PISGAH FOREST 2.5 N","","","PRCP",2013,2020
"445","US1NCTR0024",35.1442,-82.7316,93,"NC","BREVARD 6.5 S","","","PRCP",2013,2020
"446","US1NCTR0026",35.2074,-82.7428,667.5,"NC","BREVARD 2.2 SSW","","","PRCP",2015,2020
"447","US1NCUN0001",35.0207,-80.5343,175,"NC","MONROE 2.4 N","","","PRCP",2007,2020
"448","US1NCUN0009",34.9788,-80.7165,182.6,"NC","WAXHAW 4.0 NNE","","","PRCP",2008,2020
"449","US1NCUN0010",35.1187,-80.5147,202.4,"NC","MONROE 9.2 N","","","PRCP",2008,2020
"450","US1NCUN0017",34.9447,-80.6747,196.9,"NC","WAXHAW 4.1 ENE","","","PRCP",2011,2020
"451","US1NCUN0021",34.8261,-80.6957,185.6,"NC","WAXHAW 7.3 SSE","","","PRCP",2013,2020
"452","US1NCUN0022",34.9219,-80.641,208.2,"NC","MONROE 7.2 SW","","","PRCP",2013,2020
"453","US1NCUN0026",34.9581,-80.7624,174,"NC","WAXHAW 2.6 NNW","","","PRCP",2015,2020
"454","US1NCUN0027",35.0248,-80.7715,203.3,"NC","WEDDINGTON 1.9 WSW","","","PRCP",2015,2020
"455","US1NCUN0028",34.9149,-80.631,211.2,"NC","MONROE 7.1 SW","","","PRCP",2015,2020
"456","US1NCVN0003",36.3136,-78.4538,128,"NC","HENDERSON 2.5 WSW","","","PRCP",2009,2020
"457","US1NCVN0005",36.3558,-78.3896,152.7,"NC","HENDERSON 2.5 NNE","","","PRCP",2009,2020
"458","US1NCVN0006",36.5417,-78.3569,105.5,"NC","TOWNSVILLE 4.9 NE","","","PRCP",2009,2020
"459","US1NCWK0001",35.9696,-78.6887,113.1,"NC","RALEIGH 10.3 N","","","PRCP",2007,2020
"460","US1NCWK0002",35.8057,-78.6759,110,"NC","RALEIGH 1.5 SW","","","PRCP",2007,2020
"461","US1NCWK0003",35.8143,-78.5478,73.2,"NC","RALEIGH 6.2 E","","","PRCP",2007,2020
"462","US1NCWK0004",35.7133,-78.7854,125,"NC","APEX 3.4 ESE","","","PRCP",2007,2020
"463","US1NCWK0006",35.6489,-78.8171,123.1,"NC","HOLLY SPRINGS 1.1 ESE","","","PRCP",2007,2020
"464","US1NCWK0013",35.8624,-78.5665,103.9,"NC","RALEIGH 5.9 ENE","","","PRCP",2007,2020
"465","US1NCWK0020",35.682,-78.7349,121.9,"NC","HOLLY SPRINGS 6.0 ENE","","","PRCP",2007,2020
"466","US1NCWK0022",35.6918,-78.7443,121.9,"NC","APEX 6.1 ESE","","","PRCP",2007,2020
"467","US1NCWK0023",35.8317,-78.6015,84.1,"NC","RALEIGH 3.3 ENE","","","PRCP",2007,2020
"468","US1NCWK0027",35.8381,-78.5597,81.1,"NC","RALEIGH 5.7 ENE","","","PRCP",2007,2020
"469","US1NCWK0034",35.7331,-78.9073,96.9,"NC","APEX 3.5 W","","","PRCP",2007,2020
"470","US1NCWK0040",35.7884,-78.8024,135.9,"NC","CARY 0.4 NNW","","","PRCP",2007,2020
"471","US1NCWK0044",35.6823,-78.4991,98.1,"NC","CLAYTON 3.3 NW","","","PRCP",2008,2020
"472","US1NCWK0059",35.8204,-78.6005,83.2,"NC","RALEIGH 3.3 E","","","PRCP",2008,2020
"473","US1NCWK0061",35.9425,-78.6812,126.8,"NC","RALEIGH 8.4 N","","","PRCP",2008,2020
"474","US1NCWK0065",35.6041,-78.8189,136.2,"NC","HOLLY SPRINGS 3.6 SSE","","","PRCP",2008,2020
"475","US1NCWK0073",35.8815,-78.6259,128.6,"NC","RALEIGH 4.5 NNE","","","PRCP",2008,2020
"476","US1NCWK0077",35.7572,-78.8378,139.6,"NC","APEX 2.2 N","","","PRCP",2009,2020
"477","US1NCWK0079",35.7827,-78.8192,127.4,"NC","CARY 1.1 W","","","PRCP",2009,2020
"478","US1NCWK0081",35.7669,-78.8607,126.8,"NC","APEX 3.0 NNW","","","PRCP",2009,2020
"479","US1NCWK0084",35.6692,-78.9135,93.9,"NC","APEX 5.5 SW","","","PRCP",2010,2020
"480","US1NCWK0088",35.873,-78.6729,127.7,"NC","RALEIGH 3.6 NNW","","","PRCP",2010,2020
"481","US1NCWK0090",35.77,-78.68,87.5,"NC","RALEIGH 3.8 SSW","","","PRCP",2010,2020
"482","US1NCWK0100",35.9214,-78.6741,109.4,"NC","RALEIGH 6.9 N","","","PRCP",2011,2020
"483","US1NCWK0105",35.7442,-78.8061,125.6,"NC","CARY 2.7 S","","","PRCP",2011,2020
"484","US1NCWK0106",35.7965,-78.7874,137.5,"NC","CARY 0.5 NW","","","PRCP",2011,2020
"485","US1NCWK0115",35.8562,-78.636,118.9,"NC","RALEIGH 2.7 NNE","","","PRCP",2012,2020
"486","US1NCWK0119",35.8036,-78.7544,127.1,"NC","RALEIGH 5.5 WSW","","","PRCP",2012,2020
"487","US1NCWK0131",36.0176,-78.5817,122.2,"NC","WAKE FOREST 4.7 NW","","","PRCP",2013,2020
"488","US1NCWK0133",35.9212,-78.4023,101.8,"NC","WAKE FOREST 7.5 ESE","","","PRCP",2013,2020
"489","US1NCWK0141",35.684,-78.6936,110.3,"NC","GARNER 3.8 W","","","PRCP",2013,2020
"490","US1NCWK0149",35.7269,-78.4648,78.9,"NC","KNIGHTDALE 4.7 SSE","","","PRCP",2013,2020
"491","US1NCWK0154",35.7692,-78.8636,123.1,"NC","CARY 3.8 WSW","","","PRCP",2013,2020
"492","US1NCWK0165",35.771,-78.7049,108.2,"NC","RALEIGH 4.4 SW","","","PRCP",2013,2020
"493","US1NCWK0174",35.8465,-78.663,75.9,"NC","RALEIGH 1.7 N","","","PRCP",2014,2020
"494","US1NCWK0176",35.7891,-78.8023,133.2,"NC","CARY 0.4 NNW","","","PRCP",2014,2020
"495","US1NCWK0181",35.8116,-78.714,130.5,"NC","RALEIGH 3.2 WSW","","","PRCP",2014,2020
"496","US1NCWK0182",35.7615,-78.7573,132.3,"NC","CARY 2.8 ESE","","","PRCP",2014,2020
"497","US1NCWK0185",35.8142,-78.8459,98.8,"NC","MORRISVILLE 1.5 SSW","","","PRCP",2014,2020
"498","US1NCWK0188",35.9972,-78.513,98.1,"NC","WAKE FOREST 1.9 NNE","","","PRCP",2015,2020
"499","US1NCWK0190",35.8897,-78.6547,129.5,"NC","RALEIGH 4.7 N","","","PRCP",2015,2020
"500","US1NCWK0196",35.6958,-78.7316,111.6,"NC","RALEIGH 9.6 SSW","","","PRCP",2015,2020
"501","US1NCWK0197",35.9007,-78.5805,101.5,"NC","RALEIGH 7.0 NE","","","PRCP",2015,2020
"502","US1NCWK0198",35.7654,-78.7725,129.8,"NC","CARY 1.9 SE","","","PRCP",2015,2020
"503","US1NCWK0199",35.6729,-78.6174,88.1,"NC","GARNER 1.6 SSE","","","PRCP",2015,2020
"504","US1NCWK0202",36.0049,-78.5132,110.9,"NC","WAKE FOREST 2.4 N","","","PRCP",2015,2020
"505","US1NCWK0203",35.8713,-78.6387,121.6,"NC","RALEIGH 3.6 NNE","","","PRCP",2015,2020
"506","US1NCWL0003",36.2124,-81.2544,392.9,"NC","MILLERS CREEK 1.9 NNW","","","PRCP",2009,2020
"507","US1NCWL0010",36.2132,-81.3574,420,"NC","PURLEAR 4.6 WNW","","","PRCP",2012,2020
"508","US1NCWN0006",35.7208,-78.1108,68.9,"NC","SIMS 4.0 SW","","","PRCP",2007,2020
"509","US1NCWN0015",35.755,-77.7545,43.9,"NC","ELM CITY 7.1 ESE","","","PRCP",2013,2020
"510","US1NCWN0017",35.7781,-77.9382,41.5,"NC","WILSON 3.3 NNW","","","PRCP",2014,2020
"511","US1NCWR0002",36.5258,-78.1893,96,"NC","NORLINA 5.5 N","","","PRCP",2009,2020
"512","US1NCWR0007",36.5174,-78.1921,90.8,"NC","NORLINA 5.0 N","","","PRCP",2012,2020
"513","US1NCWS0003",35.8983,-76.5822,3,"NC","ROPER 2.4 NE","","","PRCP",2011,2020
"514","US1NCWT0007",36.1912,-81.7682,969,"NC","VALLE CRUCIS 1.4 SSE","","","PRCP",2007,2020
"515","US1NCWT0009",36.2184,-81.672,1011.9,"NC","BOONE 0.6 N","","","PRCP",2007,2020
"516","US1NCWT0010",36.1484,-81.64,1054,"NC","BLOWING ROCK 2.2 NE","","","PRCP",2007,2020
"517","US1NCWT0011",36.1461,-81.7877,996.7,"NC","FOSCOE 1.2 WSW","","","PRCP",2007,2020
"518","US1NCWT0024",36.1667,-81.609,1135.4,"NC","BOONE 4.5 SE","","","PRCP",1998,2020
"519","US1NCWT0037",36.2163,-81.5885,1010.1,"NC","BOONE 4.6 E","","","PRCP",2012,2020
"520","US1NCWT0046",36.1592,-81.7913,0,"NC","SEVEN DEVILS 1.4 ENE","","","PRCP",2015,2020
"521","US1NCWT0048",36.1497,-81.8121,1227.7,"NC","SEVEN DEVILS 0.1 E","","","PRCP",2015,2020
"522","US1NCWT0051",36.2241,-81.7826,849.5,"NC","VILAS 2.0 SSW","","","PRCP",2015,2020
"523","US1NCWY0001",35.3724,-77.8984,40.8,"NC","GOLDSBORO 4.4 E","","","PRCP",2007,2020
"524","US1NCWY0002",35.4704,-78.0892,35.1,"NC","PIKEVILLE 6.2 WSW","","","PRCP",2007,2020
"525","US1NCWY0010",35.2966,-78.165,50.3,"NC","GOLDSBORO 11.5 WSW","","","PRCP",2011,2020
"526","US1NCWY0017",35.5478,-78.0577,40.8,"NC","KENLY 4.9 SE","","","PRCP",2014,2020
"527","US1NCWY0018",35.4409,-78.04,29,"NC","GOLDSBORO 5.9 NW","","","PRCP",2014,2020
"528","US1NCYD0003",36.0532,-80.6028,260.6,"NC","YADKINVILLE 6.3 SSE","","","PRCP",2013,2020
"529","US1NCYD0004",36.1309,-80.6555,280.4,"NC","YADKINVILLE 0.2 E","","","PRCP",2013,2020
"530","US1NCYN0001",35.982,-82.2852,792.2,"NC","BURNSVILLE 4.6 N","","","PRCP",2007,2020
"531","US1NCYN0004",35.8297,-82.3285,947.9,"NC","BURNSVILLE 6.5 SSW","","","PRCP",2007,2020
"532","US1NCYN0006",35.9126,-82.423,785.8,"NC","BURNSVILLE 7.0 W","","","PRCP",2009,2020
"533","US1NCYN0007",35.9232,-82.4388,862.9,"NC","BALD CREEK 1.2 NW","","","PRCP",2009,2020
"534","US1NCYN0011",35.921,-82.3233,892.1,"NC","BURNSVILLE 1.5 WNW","","","PRCP",2013,2020
"535","US1NCYN0012",35.8264,-82.2843,952.8,"NC","BURNSVILLE 6.4 S","","","PRCP",1998,2020
"536","US1NCYN0013",35.8386,-82.3414,1163.1,"NC","BURNSVILLE 5.9 SSW","","","PRCP",2014,2020
"537","US1NCYN0014",35.8244,-82.3292,1010.1,"NC","BURNSVILLE 6.6 SSW","","","PRCP",1998,2020
"538","USC00310090",35.3992,-80.1994,185.9,"NC","ALBEMARLE","","HCN","PRCP",1911,2020
"539","USC00310212",35.7425,-78.8369,137.2,"NC","APEX","","","PRCP",1993,2020
"540","USC00310286",35.7083,-79.8381,265.2,"NC","ASHEBORO 2 W","","","PRCP",1926,2020
"541","USC00310356",34.6997,-76.7381,1.2,"NC","ATLANTIC BEACH WTP","","","PRCP",2004,2020
"542","USC00310375",35.3872,-76.7764,6.1,"NC","AURORA 6 N","","","PRCP",1973,2020
"543","USC00310506",36.1617,-81.8742,1149.1,"NC","BANNER ELK","","","PRCP",1907,2020
"544","USC00310531",35.76,-82.4325,707.1,"NC","BARNARDSVILLE 2 SE","","","PRCP",2011,2020
"545","USC00310576",35.1311,-76.8161,1.5,"NC","BAYBORO 3 SW","","","PRCP",1968,2020
"546","USC00310645",36.1875,-81.8742,1540.2,"NC","BEECH MTN","","","PRCP",1991,2020
"547","USC00310724",35.5044,-82.5967,643.1,"NC","BENT CREEK","","","PRCP",1949,2020
"548","USC00310750",35.6542,-79.0706,94.5,"NC","B EVERETT JORDAN DAM","","","PRCP",2011,2020
"549","USC00310982",36.2139,-81.6456,944.9,"NC","BOONE 1 SE","","","PRCP",1980,2020
"550","USC00311055",35.2283,-82.7358,662.9,"NC","BREVARD","","","PRCP",1902,2020
"551","USC00311081",35.7428,-81.8361,335.3,"NC","BRIDGEWATER HYDRO","","","PRCP",1948,2020
"552","USC00311165",35.4467,-83.4622,605,"NC","BRYSON CITY 4","","","PRCP",2010,2020
"553","USC00311239",36.0603,-79.4481,201.2,"NC","BURLINGTON FIRE STN #5","","","PRCP",1950,2020
"554","USC00311248",35.925,-82.2717,861.1,"NC","BURNSVILLE AG","","","PRCP",2011,2020
"555","USC00311420",35.5453,-82.6986,682.8,"NC","CANDLER 1 W","","","PRCP",1992,2020
"556","USC00311429",35.9494,-79.2386,160,"NC","CANE CREEK RSVR","","","PRCP",2011,2020
"557","USC00311515",35.3319,-79.4067,134.1,"NC","CARTHAGE WTP","","","PRCP",1948,2020
"558","USC00311535",35.7192,-78.7878,118.9,"NC","CARY","","","PRCP",2000,2020
"559","USC00311538",35.5119,-81.6189,344.4,"NC","CASAR","","","PRCP",1956,2020
"560","USC00311578",35.6486,-81.1342,309.4,"NC","CATAWBA 5 SW","","","PRCP",2012,2020
"561","USC00311606",34.9833,-76.3,2.4,"NC","CEDAR IS","","","PRCP",1955,2020
"562","USC00311624",35.8264,-82.1836,823,"NC","CELO 2 S","","","PRCP",1948,2020
"563","USC00311677",35.9086,-79.0794,152.4,"NC","CHAPEL HILL 2 W","","HCN","PRCP",1891,2020
"564","USC00311700",35.7369,-79.0047,93.9,"NC","CHATHAM WTP","","","PRCP",2007,2020
"565","USC00311817",35.635,-78.3978,101.2,"NC","CLAYTON 3E","","","PRCP",2011,2020
"566","USC00311820",35.6408,-78.4633,91.4,"NC","CLAYTON WTP","","","PRCP",1955,2020
"567","USC00311881",35.0247,-78.2758,48.2,"NC","CLINTON 2 NE","","","PRCP",1971,2020
"568","USC00311949",35.7108,-76.1269,3,"NC","COLUMBIA AG GUM NECK","","","PRCP",2008,2020
"569","USC00311975",35.4111,-80.5833,213.4,"NC","CONCORD","","","PRCP",1891,2020
"570","USC00311990",35.8214,-81.1919,269.1,"NC","CONOVER OXFORD SHOALS","","","PRCP",1948,2020
"571","USC00312102",35.0603,-83.43,684.9,"NC","COWEETA EXP STN","","","PRCP",1942,2020
"572","USC00312200",35.3117,-83.1747,668.1,"NC","CULLOWHEE","","","PRCP",1909,2020
"573","USC00312238",36.43,-80.1789,310.6,"NC","DANBURY","","","PRCP",1946,2020
"574","USC00312500",35.3247,-78.6881,61,"NC","DUNN 4 NW","","","PRCP",1962,2020
"575","USC00312574",35.2458,-82.3892,527.3,"NC","E FLAT ROCK 3 SE","","","PRCP",2011,2020
"576","USC00312631",36.4742,-79.7433,206.7,"NC","EDEN","","","PRCP",1969,2020
"577","USC00312635",36.0164,-76.5517,3,"NC","EDENTON","","HCN","PRCP",1872,2020
"578","USC00312719",36.3097,-76.205,2.4,"NC","ELIZABETH CITY","","HCN","PRCP",1911,2020
"579","USC00312732",34.6272,-78.6114,36.6,"NC","ELIZABETHTOWN","","","PRCP",1910,2020
"580","USC00312740",36.2547,-80.8639,277.4,"NC","ELKIN","","","PRCP",1913,2020
"581","USC00312837",35.5408,-82.6536,624.8,"NC","ENKA","","","PRCP",1930,2020
"582","USC00312940",35.5361,-76.3122,1.5,"NC","FAIRFIELD","","","PRCP",2006,2020
"583","USC00312993",35.9808,-78.6528,85.3,"NC","FALLS LAKE","","","PRCP",2000,2020
"584","USC00313017",35.0583,-78.8583,29.3,"NC","FAYETTEVILLE (PWC)","","HCN","PRCP",1871,2020
"585","USC00313072",36.2525,-81.9136,1015,"NC","FLAT SPRINGS 1E","","","PRCP",2007,2020
"586","USC00313106",35.4267,-82.5569,630.9,"NC","FLETCHER 3 W","","","PRCP",1959,2020
"587","USC00313152",35.3125,-81.9892,258.8,"NC","FOREST CITY 8 W","","","PRCP",2005,2020
"588","USC00313228",35.1803,-83.3931,647.7,"NC","FRANKLIN","","","PRCP",1872,2020
"589","USC00313238",35.6708,-78.6608,100.6,"NC","GARNER","","","PRCP",1981,2020
"590","USC00313336",35.2511,-75.6047,0,"NC","FRISCO 2NNE","","","PRCP",2010,2020
"591","USC00313356",35.2672,-81.1436,213.4,"NC","GASTONIA","","","PRCP",1930,2020
"592","USC00313503",35.4244,-77.9986,33.2,"NC","GOLDSBORO AG 1 N","","","PRCP",2011,2020
"593","USC00313555",36.0503,-79.3728,201.2,"NC","GRAHAM 2 ENE","","","PRCP",1902,2020
"594","USC00313565",36.0964,-81.8311,1609.3,"NC","GRANDFATHER MTN","","","PRCP",1955,2020
"595","USC00313625",36.0811,-79.8047,233.2,"NC","GREENSBORO WTP","","","PRCP",1948,2020
"596","USC00313638",35.64,-77.3983,9.8,"NC","GREENVILLE","","","PRCP",1875,2020
"597","USC00313784",34.8872,-79.6922,106.7,"NC","HAMLET","","","PRCP",1950,2020
"598","USC00313919",36.0639,-79.3831,193.9,"NC","HAW RVR 1E","","","PRCP",2001,2020
"599","USC00313969",36.3481,-78.4119,146.3,"NC","HENDERSON 2 NNW","","HCN","PRCP",1893,2020
"600","USC00313971",36.3647,-78.3881,152.4,"NC","HENDERSON 4 NNE","","","PRCP",2013,2020
"601","USC00313976",35.3297,-82.4492,658.4,"NC","HENDERSONVILLE 1 NE","","HCN","PRCP",1898,2020
"602","USC00314055",35.0564,-83.1983,1173.5,"NC","HIGHLANDS","","HCN","PRCP",1879,2020
"603","USC00314063",35.9672,-79.9722,274.3,"NC","HIGH PT","","","PRCP",1921,2020
"604","USC00314260",35.8953,-82.8314,410,"NC","HOT SPRINGS","","","PRCP",1927,2020
"605","USC00314456",36.3964,-77.4239,37.5,"NC","JACKSON","","","PRCP",1948,2020
"606","USC00314464",35.1858,-79.6772,222.5,"NC","JACKSON SPRINGS 5 WNW","","","PRCP",1952,2020
"607","USC00314471",34.7964,-77.4011,5.2,"NC","JACKSONVILLE EOC","","","PRCP",2004,2020
"608","USC00314496",36.4175,-81.4297,844.3,"NC","JEFFERSON 2 E","","","PRCP",1896,2020
"609","USC00314675",36.2839,-80.3625,268.2,"NC","KING","","","PRCP",1999,2020
"610","USC00314689",35.2975,-77.5722,18.3,"NC","KINSTON AG RSCH","","","PRCP",1966,2020
"611","USC00314764",35.4203,-82.1875,317,"NC","LAKE LURE 2","","","PRCP",1948,2020
"612","USC00314788",35.0967,-82.9508,975.4,"NC","LAKE TOXAWAY 2 SW","","","PRCP",1950,2020
"613","USC00314860",34.7508,-79.4664,64,"NC","LAURINBURG","","","PRCP",1946,2020
"614","USC00314938",35.9147,-81.5375,352,"NC","LENOIR","","HCN","PRCP",1871,2020
"615","USC00314962",36.1325,-77.1708,15.2,"NC","LEWISTON","","","PRCP",1954,2020
"616","USC00314970",35.8458,-80.2597,231.6,"NC","LEXINGTON","","","PRCP",1902,2020
"617","USC00314987",35.4083,-78.8208,45.7,"NC","LILLINGTON","","","PRCP",1891,2020
"618","USC00314996",35.4606,-81.3297,270.4,"NC","LINCOLNTON 4 W","","","PRCP",1952,2020
"619","USC00314997",35.48,-81.28,245.4,"NC","LINCOLNTON 2 NW","","","PRCP",2011,2020
"620","USC00315116",34.0106,-78.5464,12.2,"NC","LONGWOOD","","","PRCP",1972,2020
"621","USC00315123",36.1028,-78.3039,79.2,"NC","LOUISBURG","","HCN","PRCP",1893,2020
"622","USC00315175",34.3903,-79.0022,29.3,"NC","LUMBER RVR SP","","","PRCP",2007,2020
"623","USC00315177",34.6269,-79.025,34.1,"NC","LUMBERTON","","HCN","PRCP",1903,2020
"624","USC00315340",35.6847,-82.0083,429.8,"NC","MARION","","HCN","PRCP",1893,2020
"625","USC00315356",35.8033,-82.6658,585.2,"NC","MARSHALL","","HCN","PRCP",1898,2020
"626","USC00315743",35.8422,-80.4978,207.3,"NC","MOCKSVILLE 5SE","","","PRCP",1893,2020
"627","USC00315771",34.9797,-80.5233,167.6,"NC","MONROE 2 SE","","HCN","PRCP",1896,2020
"628","USC00315820",34.4581,-78.1094,6.7,"NC","MOORES CREEK NB","","","PRCP",2005,2020
"629","USC00315830",34.7336,-76.7358,3,"NC","MOREHEAD CITY 2 WNW","","HCN","PRCP",1948,2020
"630","USC00315838",35.7297,-81.6728,359.7,"NC","MORGANTON","","HCN","PRCP",1880,2020
"631","USC00315890",36.4961,-80.6522,329.2,"NC","MT AIRY 2 W","","HCN","PRCP",1893,2020
"632","USC00315913",35.3339,-80.9867,185.9,"NC","MT HOLLY 4 NE","","","PRCP",1892,2020
"633","USC00315923",35.7586,-82.2711,1902,"NC","MT MITCHELL","","","PRCP",1980,2020
"634","USC00315930",35.1375,-77.9892,49.4,"NC","MT OLIVE 6SE","","","PRCP",2008,2020
"635","USC00315945",35.4117,-80.4308,225.6,"NC","MT PLEASANT","","","PRCP",1893,2020
"636","USC00315996",36.4522,-77.0803,30.5,"NC","MURFREESBORO","","","PRCP",1973,2020
"637","USC00316001",35.0714,-83.9683,487.7,"NC","MURPHY 4ESE","","","PRCP",1872,2020
"638","USC00316096",34.7764,-76.8769,9.1,"NC","NEWPORT/MOREHEAD CITY WFO","","","PRCP",2009,2020
"639","USC00316122",35.6808,-78.9158,97.5,"NC","NEW HILL","","","PRCP",2003,2020
"640","USC00316236",35.6631,-82.3444,755.9,"NC","N FK 2","","","PRCP",1942,2020
"641","USC00316256",36.1639,-81.1536,341.4,"NC","N WILKESBORO","","","PRCP",1921,2020
"642","USC00316341",35.49,-83.3136,598.9,"NC","CHEROKEE","","","PRCP",1958,2020
"643","USC00316349",35.1075,-75.9872,1.2,"NC","OCRACOKE","","","PRCP",1957,2020
"644","USC00316380",35.6672,-82.1236,434.3,"NC","OLD FT AG 3 W","","","PRCP",2011,2020
"645","USC00316422",34.925,-77.5114,6.1,"NC","RICHLANDS","","","PRCP",2004,2020
"646","USC00316510",36.3022,-78.6108,152.4,"NC","OXFORD AG","","","PRCP",1994,2020
"647","USC00316676",35.0556,-77.0858,8.5,"NC","PERRYTOWN","","","PRCP",2003,2020
"648","USC00316686",36.1558,-80.37,289.6,"NC","PFAFFTOWN","","","PRCP",2005,2020
"649","USC00316805",35.2719,-82.6475,667.5,"NC","PISGAH FOREST 3 NE","","","PRCP",1939,2020
"650","USC00316853",35.8722,-76.6592,6.1,"NC","PLYMOUTH 5 E","","","PRCP",1945,2020
"651","USC00317079",35.7944,-78.6989,121.9,"NC","RALEIGH STATE UNIV","","","PRCP",1892,2020
"652","USC00317097",35.8222,-79.7917,246.9,"NC","RANDLEMAN","","","PRCP",1905,2020
"653","USC00317170",35.1311,-76.9153,13.7,"NC","REELSBORO","","","PRCP",2007,2020
"654","USC00317202",36.3797,-79.6944,271.3,"NC","REIDSVILLE 2 NW","","HCN","PRCP",1962,2020
"655","USC00317229",35.7747,-81.4372,297.5,"NC","RHODHISS HYDRO PLT","","","PRCP",1948,2020
"656","USC00317319",36.4783,-77.6717,64,"NC","ROANOKE RAPIDS","","","PRCP",1972,2020
"657","USC00317344",35.3764,-83.7,710.2,"NC","ROBBINSVILLE AG 5 NE","","","PRCP",2004,2020
"658","USC00317400",35.8936,-77.6805,33.5,"NC","ROCKY MT 8 ESE","","","PRCP",1914,2020
"659","USC00317486",35.1369,-82.8203,664.5,"NC","ROSMAN","","","PRCP",1935,2020
"660","USC00317516",36.3464,-78.8858,216.4,"NC","ROXBORO 7 ESE","","","PRCP",1893,2020
"661","USC00317615",35.6836,-80.4822,213.4,"NC","SALISBURY","","HCN","PRCP",1893,2020
"662","USC00317618",35.6967,-80.6225,221,"NC","SALISBURY 9 WNW","","","PRCP",1983,2020
"663","USC00317656",35.5347,-79.0464,79.9,"NC","SANFORD 8 NE","","","PRCP",1972,2020
"664","USC00317813",33.9283,-78.3894,6.1,"NC","SHALLOTTE AG","","","PRCP",2005,2020
"665","USC00317845",35.3111,-81.5708,249.9,"NC","SHELBY 2 NW","","","PRCP",1893,2020
"666","USC00317924",35.7606,-79.4622,185.9,"NC","SILER CITY 2 N","","","PRCP",1916,2020
"667","USC00317994",35.5172,-78.3442,45.7,"NC","SMITHFIELD","","HCN","PRCP",1892,2020
"668","USC00318066",35.455,-77.6667,12.5,"NC","SNOW HILL WASTE WATER TREAMENT","","","PRCP",2009,2020
"669","USC00318158",36.4592,-81.1528,917.8,"NC","SPARTA 3.5 SSW","","","PRCP",1942,2020
"670","USC00318221",35.9325,-82.0019,868.7,"NC","SPRUCE PINE 2 NE","","","PRCP",2004,2020
"671","USC00318292",35.81,-80.8808,244.8,"NC","STATESVILLE 2 NNE","","HCN","PRCP",1901,2020
"672","USC00318450",35.395,-76.3261,0.9,"NC","SWANQUARTER FERRY","","","PRCP",2005,2020
"673","USC00318500",35.8847,-77.5386,10.7,"NC","TARBORO 1 S","","HCN","PRCP",1870,2020
"674","USC00318519",35.9225,-81.1717,402.3,"NC","TAYLORSVILLE","","","PRCP",1994,2020
"675","USC00318694",36.4003,-81.3053,863.8,"NC","TRANSOU","","HCN","PRCP",1946,2020
"676","USC00318744",35.2058,-82.2517,402.3,"NC","TRYON","","","PRCP",1917,2020
"677","USC00318778",35.9064,-80.8142,261.5,"NC","TURNERSBURG","","","PRCP",1955,2020
"678","USC00318906",35.5236,-81.4444,300.2,"NC","VALE AG 2 SW","","","PRCP",2010,2020
"679","USC00318964",34.9586,-80.0781,146.3,"NC","WADESBORO","","","PRCP",1938,2020
"680","USC00319026",34.7314,-77.9831,10.7,"NC","WALLACE 1SE","","","PRCP",2000,2020
"681","USC00319100",35.5525,-77.0722,3,"NC","WASHINGTON WWTP 4W","","","PRCP",1893,2020
"682","USC00319123",35.7744,-83.0997,435.9,"NC","WATERVILLE 2","","","PRCP",1930,2020
"683","USC00319147",35.4867,-82.9681,810.2,"NC","WAYNESVILLE 1 E","","HCN","PRCP",1894,2020
"684","USC00319440",35.8528,-77.0306,6.1,"NC","WILLIAMSTON 1 E","","","PRCP",1930,2020
"685","USC00319461",34.1425,-77.8789,9.1,"NC","WILMINGTON 7 SE","","","PRCP",2008,2020
"686","USC00319467",34.3208,-77.9206,12.2,"NC","WILMINGTON 7 N","","","PRCP",1949,2020
"687","USC00319476",35.6939,-77.9461,33.5,"NC","WILSON 3 SW","","HCN","PRCP",1916,2020
"688","USC00319555",36.1308,-81.2275,326.1,"NC","W KERR SCOTT RESV","","","PRCP",1965,2020
"689","USC00319675",36.1306,-80.5481,266.7,"NC","YADKINVILLE 6 E","","","PRCP",1940,2020
"690","USC00319704",36.3772,-79.255,193.5,"NC","YANCEYVILLE 4 SE","","","PRCP",1996,2020
"691","USW00003758",35.9706,-79.0931,171.3,"NC","DURHAM 11 W","","CRN 74694","PRCP",2007,2020
"692","USW00003810",35.7425,-81.3819,348.4,"NC","HICKORY FAA AP","","72301","PRCP",1949,2020
"693","USW00003812",35.4319,-82.5375,645.3,"NC","ASHEVILLE RGNL AP","","72315","PRCP",1946,2020
"694","USW00013722",35.8922,-78.7819,126.8,"NC","RALEIGH DURHAM INTL AP","GSN","72306","PRCP",1944,2020
"695","USW00013723",36.0969,-79.9433,271.3,"NC","PIEDMONT TRIAD INTL AP","","72317","PRCP",1928,2020
"696","USW00013748",34.2675,-77.8997,10.1,"NC","WILMINGTON INTL AP","","72302","PRCP",1948,2020
"697","USW00013754",34.9,-76.8833,8.8,"NC","CHERRY POINT MCAS","","72309","PRCP",1945,2020
"698","USW00013766",35.9172,-75.7,4,"NC","MANTEO AP","","","PRCP",1966,2020
"699","USW00013776",34.6081,-79.0592,36.9,"NC","LUMBERTON MUNI AP","","","PRCP",1948,2020
"700","USW00013786",36.2606,-76.175,4,"NC","ELIZABETH CITY CGAS","","72307","PRCP",1948,2020
"701","USW00013872",35.5953,-82.5567,682.1,"NC","ASHEVILLE","","","PRCP",1876,2020
"702","USW00013881",35.2236,-80.9553,221.9,"NC","CHARLOTTE DOUGLAS AP","","72314","PRCP",1939,2020
"703","USW00053870",35.1967,-81.1558,242.9,"NC","GASTONIA MUNI AP","","","PRCP",1999,2020
"704","USW00053872",35.0169,-80.6206,207,"NC","MONROE AP","","","PRCP",1999,2020
"705","USW00053877",35.4944,-82.6142,655.6,"NC","ASHEVILLE 8 SSW","","CRN 74696","PRCP",2002,2020
"706","USW00053878",35.4186,-82.5567,641,"NC","ASHEVILLE 13 S","","CRN 74697","PRCP",2002,2020
"707","USW00093719",35.0678,-77.0481,5.8,"NC","NEW BERN CRAVEN CO AP","","","PRCP",1948,2020
"708","USW00093727",34.7,-77.3833,7.9,"NC","NEW RIVER MCAF","","","PRCP",1959,2020
"709","USW00093729",35.2325,-75.6219,3.4,"NC","CAPE HATTERAS AP","GSN","HCN 72304","PRCP",1957,2020
"710","USW00093740",34.9914,-78.8803,56.7,"NC","FAYETTEVILLE RGNL AP","","","PRCP",1998,2020
"711","USW00093759",35.855,-77.8931,48.8,"NC","ROCKY MT WILSON AP","","","PRCP",2000,2020
"712","USW00093765",34.7336,-76.6606,3.4,"NC","BEAUFORT MICHAEL J SMITH FLD","","","PRCP",2000,2020
"713","USW00093782",34.7917,-79.3661,67.1,"NC","LAURINBURG MAXTON AP","","","PRCP",1998,2020
"714","USW00093783",36.0467,-79.4769,188.1,"NC","BURLINGTON ALAMANCE AP","","","PRCP",1998,2020
"715","USW00093807",36.1336,-80.2222,295.7,"NC","WINSTON SALEM RYNLDS AP","","72319","PRCP",1899,2020
